restaurant_id,category,restaurant_name,price_range,latitude,longitude,neighbourhood_id,neighbourhood_name
1,Afghan,The Host,$11-30,43.669934999999995,-79.39585799999999,95,annex
2,Afghan,Aanch Modernist Indian Cuisine,$11-30,43.644708,-79.39067,77,waterfront communities-the island
3,Afghan,Silk Road Kabob House,Under $10,43.659816,-79.385591,76,bay street corridor
4,Afghan,Naan & Kabob,$11-30,43.669058,-79.3861,75,church-yonge corridor
5,Afghan,Afghan Cuisine,$11-30,43.70807,-79.34150799999999,55,thorncliffe park
6,Afghan,Pamier Kabob,$11-30,43.64721,-79.395473,77,waterfront communities-the island
7,Afghan,Bamiyan Kabob,$11-30,43.773829,-79.492068,27,york university heights
8,Afghan,Kandahar Kabab,$11-30,43.812544,-79.242368,132,malvern
9,Afghan,Afghan Kebob Cuisine,Under $10,43.716049,-79.555686,4,rexdale-kipling
10,Afghan,Bamiyan Kabob,$11-30,43.707861,-79.34336400000001,55,thorncliffe park
11,Afghan,Naan and Kabob,$11-30,43.795206,-79.23978100000001,128,agincourt south-malvern west
12,Afghan,Loga’s Corner,Under $10,43.640353000000005,-79.435923,85,south parkdale
13,Afghan,Christina’s On the Danforth,$11-30,43.678301,-79.349192,67,playter estates-danforth
14,Afghan,Xawaash,$11-30,43.71528,-79.592866,1,west humber-clairville
15,Afghan,Mazar Kabob,$11-30,43.619813,-79.56182199999999,14,islington-city centre west
16,Afghan,Alanoor Afghan Kabob,$11-30,43.780840000000005,-79.298867,118,tam o'shanter-sullivan
17,Afghan,Hot Pot Cafe,Under $10,43.682317,-79.32915600000001,66,danforth
18,Afghan,Naan and Kabob,$11-30,43.775672,-79.258193,127,bendale
19,Afghan,Naan and Kabob,$11-30,43.742424,-79.305327,119,wexford/maryvale
20,Afghan,Afghan Palace,Above $61,43.671586,-79.325058,65,greenwood-coxwell
21,Afghan,Ali Baba Cafe and Restaurant,$11-30,43.765813,-79.281899,126,dorset park
22,African,Rendez-Vous,$11-30,43.68265,-79.327598,66,danforth
23,African,Caribbean Sunset Restaurant and Bar,$11-30,43.659178000000004,-79.34803199999999,70,south riverdale
24,African,African Palace,$11-30,43.661218,-79.429092,80,palmerston-little italy
25,African,Masala Kitchen,Under $10,43.722188,-79.303236,43,victoria village
26,African,Pili Pili,$11-30,43.745006,-79.298415,119,wexford/maryvale
27,African,Mushkaki’s,Under $10,43.711112,-79.567724,1,west humber-clairville
28,African,Pero Restaurant & Lounge,$11-30,43.662795,-79.422739,93,dovercourt-wallace emerson-junction
29,African,MamaLand Resto-Lounge,$11-30,43.658894000000004,-79.442757,93,dovercourt-wallace emerson-junction
30,African,Jikoni Grill,$11-30,43.790718,-79.313213,117,l'amoreaux
31,African,Scotthill Carribean Cuisine,$11-30,43.733943,-79.419534,39,bedford park-nortown
32,African,Twice As Nice,$11-30,43.758947,-79.197739,136,west hill
33,African,Ilhas De Bruma,$31-60,43.652334,-79.433657,84,little portugal
34,African,Memories of Africa,Under $10,43.725543,-79.313151,43,victoria village
35,African,Ethiopiques,$11-30,43.656341999999995,-79.377043,75,church-yonge corridor
36,African,The Suya Spot,$11-30,43.739728,-79.538552,22,humbermede
37,African,Hamdi Restaurant,$11-30,43.714323,-79.557097,4,rexdale-kipling
38,African,Nando’s Flame Grilled Chicken,$11-30,43.661705,-79.38629,76,bay street corridor
39,African,Sahan Restaurant,$11-30,43.74503,-79.296375,119,wexford/maryvale
40,African,Karibu Restaurant,$11-30,43.759277000000004,-79.310422,119,wexford/maryvale
41,African,Simba Grill,$11-30,43.693387,-79.342265,58,old east york
42,African,Nandos Danforth,$11-30,43.678816999999995,-79.34451,69,blake-jones
43,African,Chick Fiesta,$11-30,43.821343,-79.24629499999999,131,rouge
44,African,Caribbean Queen Roti Hut,Under $10,43.600536,-79.50586,18,new toronto
45,African,Nando’s Flame Grilled Chicken,$11-30,43.713034,-79.35975400000001,55,thorncliffe park
46,African,Istar Restaurant,$11-30,43.697632,-79.544214,6,kingsview village-the westway
47,African,Nando’s,$11-30,43.619962,-79.55426800000001,14,islington-city centre west
48,American (Traditional),St. Louis Bar & Grill,$11-30,43.701559,-79.39763,100,yonge-eglinton
49,American (Traditional),Sidecar,$31-60,43.6552,-79.413083,81,trinity-bellwoods
50,American (Traditional),The Stockyards,$11-30,43.681346000000005,-79.426147,94,wychwood
51,American (Traditional),Union Social Eatery,$11-30,43.687795,-79.39506899999999,97,yonge-st.clair
52,American (Traditional),Pig Out BBQ,$11-30,43.663182,-79.402567,79,university
53,American (Traditional),Hendriks Restaurant & Bar,$31-60,43.655536,-79.380934,76,bay street corridor
54,American (Traditional),Fanzone Wings & Ribs,$11-30,43.753057,-79.276234,126,dorset park
55,American (Traditional),Loaded Pierogi,$11-30,43.647901,-79.373407,77,waterfront communities-the island
56,American (Traditional),Museum Tavern,$11-30,43.668524,-79.39585100000001,95,annex
57,American (Traditional),The Monkey Bar,$31-60,43.731489,-79.40370300000001,105,lawrence park north
58,American (Traditional),Granite Bistro,Under $10,43.762054,-79.351668,40,st.andrew-windfields
59,American (Traditional),Helena’s Magic Kitchen,Under $10,43.653504,-79.39015400000001,78,kensington-chinatown
60,American (Traditional),Swiss Chalet Rotisserie & Grill,Under $10,43.67176,-79.292952,63,the beaches
61,American (Traditional),Kingsmen Pub & Grill,$11-30,43.783669,-79.253191,128,agincourt south-malvern west
62,American (Traditional),Chicago Eatery,$11-30,43.685466,-79.346864,59,danforth east york
63,American (Traditional),The Cheesecake Factory,$11-30,43.724684,-79.454173,31,yorkdale-glen park
64,American (Traditional),Hawthorne Food and Drink,$11-30,43.652368,-79.376226,75,church-yonge corridor
65,American (Traditional),Loch & Quay,$11-30,43.638431,-79.390636,77,waterfront communities-the island
66,American (Traditional),Egg Sunrise Grill,Under $10,43.649729,-79.429364,84,little portugal
67,American (Traditional),The Federal,$11-30,43.649611,-79.430139,84,little portugal
68,American (Traditional),Breakwall BBQ,$11-30,43.669323999999996,-79.304498,63,the beaches
69,American (Traditional),Bolands Kitchen,$31-60,43.70346,-79.38798100000001,99,mount pleasant east
70,American (Traditional),Layalina Shisha & Coffee,Under $10,43.656314,-79.376906,75,church-yonge corridor
71,American (Traditional),The Carbon Bar,$31-60,43.653187,-79.374787,75,church-yonge corridor
72,American (Traditional),Frog and the Crown,$11-30,43.722377,-79.303025,43,victoria village
73,American (Traditional),Madison Avenue Pub & Restaurant,$11-30,43.667846000000004,-79.403299,95,annex
74,American (Traditional),Rock ‘n’ Horse Saloon,$11-30,43.648171000000005,-79.389077,77,waterfront communities-the island
75,American (Traditional),Sugar Miracles,Under $10,43.716805,-79.400696,103,lawrence park south
76,American (Traditional),The Wren,$11-30,43.68241,-79.32805,66,danforth
77,American (Traditional),El Furniture Warehouse,Under $10,43.665906,-79.408061,95,annex
78,American (Traditional),The One Eighty,$31-60,43.66975,-79.389234,95,annex
79,American (Traditional),Home Of The Brave,$11-30,43.644159,-79.400247,77,waterfront communities-the island
80,American (Traditional),Duke’s Refresher + Bar,$11-30,43.659044,-79.383071,76,bay street corridor
81,American (Traditional),Maple Leaf Tavern,$31-60,43.668182,-79.339783,70,south riverdale
82,American (Traditional),3 Eggs All Day Pub & Grill,$11-30,43.700519,-79.428463,102,forest hill north
83,American (Traditional),The Groove Bar & Grill,Under $10,43.685292,-79.31554399999999,66,danforth
84,American (Traditional),The Porch Toronto,$11-30,43.648213,-79.389095,77,waterfront communities-the island
85,American (Traditional),Reverie at The Park,$31-60,43.655159999999995,-79.412779,81,trinity-bellwoods
86,American (Traditional),Death & Taxes Free House,$11-30,43.643079,-79.424937,84,little portugal
87,American (Traditional),Victor,$31-60,43.645746,-79.39079,77,waterfront communities-the island
88,American (Traditional),Swiss Chalet Rotisserie & Grill,$31-60,43.694373,-79.276012,121,oakridge
89,American (Traditional),Aft Kitchen & Bar,$11-30,43.658809000000005,-79.35078100000001,70,south riverdale
90,American (Traditional),Banknote Bar,Under $10,43.652609000000005,-79.366084,73,moss park
91,American (Traditional),The Belsize Public House,$11-30,43.702655,-79.3877,99,mount pleasant east
92,American (Traditional),The Goodman Pub & Kitchen,$11-30,43.639103999999996,-79.380246,77,waterfront communities-the island
93,American (Traditional),Gate 403 Bar & Grill,$11-30,43.650948,-79.450854,87,high park-swansea
94,American (Traditional),Medieval Times Toronto,Above $61,43.633528000000005,-79.425126,82,niagara
95,American (Traditional),Black Briik Restobar,$11-30,43.660092999999996,-79.433138,83,dufferin grove
96,American (Traditional),Fran’s Restaurant,$11-30,43.661451,-79.384068,76,bay street corridor
97,American (Traditional),Universal Grill,$11-30,43.670521,-79.42644,93,dovercourt-wallace emerson-junction
98,American (Traditional),Holy Chicken,$11-30,43.680763,-79.336528,66,danforth
99,American (Traditional),Cafe California Restaurant,$11-30,43.664789,-79.380812,75,church-yonge corridor
100,American (Traditional),Safari Bar & Grill,$11-30,43.729048999999996,-79.41802,39,bedford park-nortown
101,American (Traditional),Kost,$31-60,43.645309999999995,-79.392459,77,waterfront communities-the island
102,American (Traditional),Tea N Bannock,$11-30,43.671182,-79.32735600000001,65,greenwood-coxwell
103,American (Traditional),Old School,$11-30,43.651922,-79.408363,81,trinity-bellwoods
104,American (Traditional),Seasons at The Prince,$31-60,43.756283,-79.349506,40,st.andrew-windfields
105,American (Traditional),Food Cabbie,Under $10,43.653226000000004,-79.383184,76,bay street corridor
106,American (Traditional),Upper Deck By Fran’s,$11-30,43.661451,-79.384068,76,bay street corridor
107,American (Traditional),Tucker’s Marketplace,$11-30,43.689031,-79.585131,1,west humber-clairville
108,American (Traditional),The Football Factory,$11-30,43.646321,-79.40386099999999,82,niagara
109,American (Traditional),The Bottom Line,$11-30,43.646521,-79.37788,76,bay street corridor
110,American (Traditional),McSorley’s Wonderful Saloon & Grill,$11-30,43.704737,-79.375121,99,mount pleasant east
111,American (Traditional),Jawny Bakers Restaurant,$11-30,43.70557,-79.312798,54,o'connor-parkview
112,American (Traditional),The Bond Pub,$11-30,43.656982,-79.452426,88,high park north
113,American (Traditional),Prohibition Gastrohouse,$11-30,43.658879,-79.35034499999999,70,south riverdale
114,American (Traditional),Lou Dawg’s,$11-30,43.660128,-79.378152,75,church-yonge corridor
115,American (Traditional),Detroit Eatery,Under $10,43.677468,-79.3517,68,north riverdale
116,American (Traditional),Harvey’s Restaurants,Under $10,43.715348,-79.455354,31,yorkdale-glen park
117,American (Traditional),The Westerly,$11-30,43.651201,-79.450783,86,roncesvalles
118,American (Traditional),Swiss Chalet Rotisserie & Grill,$11-30,43.707002,-79.396466,104,mount pleasant west
119,American (Traditional),Wings & Wings,$11-30,43.764909,-79.25913299999999,127,bendale
120,American (Traditional),AllStar Wings and Ribs,$11-30,43.677946,-79.350992,67,playter estates-danforth
121,American (Traditional),Wayne Gretzky’s Toronto,$11-30,43.645294,-79.391674,77,waterfront communities-the island
122,American (Traditional),Harvey’s Restaurants,Under $10,43.656745,-79.380484,75,church-yonge corridor
123,American (Traditional),N’awlins Jazz Bar & Dining,$11-30,43.646273,-79.390162,77,waterfront communities-the island
124,American (Traditional),Hemingway’s Restaurant,$11-30,43.670074,-79.3928,95,annex
125,American (Traditional),Element Lounge and Restaurant,$11-30,43.757051000000004,-79.52848399999999,24,black creek
126,American (Traditional),Wild Wing,$11-30,43.652691,-79.375413,75,church-yonge corridor
127,American (Traditional),Moxie’s Grill & Bar,$11-30,43.726653999999996,-79.451636,31,yorkdale-glen park
128,American (Traditional),Teller’s Bar and Lounge,$11-30,43.648858000000004,-79.37814499999999,76,bay street corridor
129,American (Traditional),Copacabana Brazilian Steakhouse,$31-60,43.648344,-79.387831,77,waterfront communities-the island
130,American (Traditional),Craft Kitchen,$11-30,43.646646999999994,-79.396602,77,waterfront communities-the island
131,American (Traditional),Blast from the Past,Under $10,43.690552000000004,-79.326009,59,danforth east york
132,American (Traditional),Harvey’s Restaurants,$11-30,43.666658,-79.315113,65,greenwood-coxwell
133,American (Traditional),Harvey’s Restaurants,$11-30,43.710996,-79.309017,54,o'connor-parkview
134,American (Traditional),St. Louis Bar & Grill,$11-30,43.663786,-79.38423399999999,76,bay street corridor
135,American (Traditional),Harvey’s Restaurants,Under $10,43.640182,-79.419003,82,niagara
136,American (Traditional),Originals Bar,$11-30,43.707284,-79.376091,99,mount pleasant east
137,American (Traditional),Betty’s,$11-30,43.651577,-79.367438,73,moss park
138,American (Traditional),Steak & Cheese Factory,Under $10,43.659909999999996,-79.37929,75,church-yonge corridor
139,American (Traditional),St. Louis Bar & Grill,$11-30,43.678267,-79.34705600000001,68,north riverdale
140,American (Traditional),East Side Mario’s,$11-30,43.785618,-79.476049,27,york university heights
141,American (Traditional),Squirly’s,$11-30,43.646095,-79.40889399999999,82,niagara
142,American (Traditional),Granite Brewery & Restaurant,$11-30,43.708176,-79.38956999999999,99,mount pleasant east
143,American (Traditional),Harvey’s Restaurants,$11-30,43.689609000000004,-79.394409,98,rosedale-moore park
144,American (Traditional),Harvey’s Restaurants,Under $10,43.682926,-79.418604,94,wychwood
145,American (Traditional),Burger Stomper,$11-30,43.677459000000006,-79.352397,68,north riverdale
146,American (Traditional),Banknote Bar,$11-30,43.643845,-79.402362,77,waterfront communities-the island
147,American (Traditional),St. Louis Bar & Grill,$11-30,43.6663,-79.406203,95,annex
148,American (Traditional),BnB Bistro,$11-30,43.651181,-79.384465,76,bay street corridor
149,American (Traditional),Twenty Two Lounge Espresso Bar & Grill,$11-30,43.666432,-79.498194,111,rockcliffe-smythe
150,American (Traditional),The Gem,$11-30,43.674608,-79.432096,94,wychwood
151,American (Traditional),Horizons Restaurant,$11-30,43.642565999999995,-79.387056,77,waterfront communities-the island
152,American (Traditional),Swiss Chalet Rotisserie & Grill,$11-30,43.726987,-79.341494,42,banbury-don mills
153,American (Traditional),Kramer’s Bar & Grill,$11-30,43.698638,-79.396331,104,mount pleasant west
154,American (Traditional),The Office Pub,$11-30,43.648182,-79.390206,77,waterfront communities-the island
155,American (Traditional),Swiss Chalet Rotisserie & Grill,$11-30,43.658317,-79.38217399999999,76,bay street corridor
156,American (Traditional),Harvey’s Restaurants,$11-30,43.671490000000006,-79.467331,90,junction area
157,American (Traditional),Swiss Chalet Rotisserie & Grill,$11-30,43.639094,-79.386103,77,waterfront communities-the island
158,American (Traditional),Swiss Chalet Rotisserie & Grill,$11-30,43.747545,-79.407313,40,st.andrew-windfields
159,American (Traditional),Liberty Village Market & Cafe,Under $10,43.637848999999996,-79.42126999999999,85,south parkdale
160,American (Traditional),The Puck Sports Bar and Grill,$11-30,43.666441,-79.405658,95,annex
161,American (Traditional),Mars Food,Under $10,43.656725,-79.407225,79,university
162,American (Traditional),Harvey’s Restaurants,Under $10,43.730173,-79.418561,39,bedford park-nortown
163,American (Traditional),Smoke’s Poutinerie,Under $10,43.66561,-79.40983,95,annex
164,American (Traditional),St. Louis Bar & Grill,$11-30,43.640409999999996,-79.390461,77,waterfront communities-the island
165,American (Traditional),Fran’s Restaurant,$11-30,43.654396999999996,-79.379065,75,church-yonge corridor
166,American (Traditional),The Rib House Restaurant,$11-30,43.693203000000004,-79.315853,60,woodbine-lumsden
167,American (Traditional),Whitesides Terrace Grille,$31-60,43.776958,-79.283745,128,agincourt south-malvern west
168,American (Traditional),Swiss Chalet Rotisserie & Grill,$11-30,43.68993,-79.394941,97,yonge-st.clair
169,American (Traditional),The Last Temptation,Under $10,43.653177,-79.400335,78,kensington-chinatown
170,American (Traditional),The Pit Stop Family Restaurant,Under $10,43.703283,-79.476843,30,brookhaven-amesbury
171,American (Traditional),Swiss Chalet Rotisserie & Grill,$11-30,43.716649,-79.45631,31,yorkdale-glen park
172,American (Traditional),Swiss Chalet Rotisserie & Grill,$11-30,43.671593,-79.467455,90,junction area
173,American (Traditional),Airport Gate Cafe & Grill,$11-30,43.687412,-79.596681,1,west humber-clairville
174,American (Traditional),Wild Wing,$11-30,43.617465,-79.538525,14,islington-city centre west
175,American (Traditional),Swiss Chalet Rotisserie & Grill,$11-30,43.788697,-79.39285100000001,49,bayview woods-steeles
176,American (Traditional),Swiss Chalet Rotisserie & Grill,$11-30,43.620342,-79.523957,14,islington-city centre west
177,American (Traditional),The Carousel Café,$11-30,43.628947,-79.39442,77,waterfront communities-the island
178,American (Traditional),Loons Restaurant & Pub,$11-30,43.65173,-79.45125999999999,87,high park-swansea
179,American (Traditional),Harvest Green,Under $10,43.645852000000005,-79.387863,77,waterfront communities-the island
180,American (Traditional),Red Lobster,$11-30,43.656363,-79.383616,76,bay street corridor
181,American (Traditional),Wahlburgers,$11-30,43.644733,-79.391851,77,waterfront communities-the island
182,American (Traditional),Swiss Chalet Rotisserie & Grill,$11-30,43.712856,-79.307552,54,o'connor-parkview
183,American (Traditional),Swiss Chalet Rotisserie & Grill,$11-30,43.773305,-79.321704,118,tam o'shanter-sullivan
184,American (Traditional),Swiss Chalet Rotisserie & Grill,$11-30,43.707786,-79.34435500000001,55,thorncliffe park
185,American (Traditional),Swiss Chalet Rotisserie & Grill,$11-30,43.659503,-79.390912,78,kensington-chinatown
186,American (Traditional),Swiss Chalet Rotisserie & Grill,$11-30,43.656013,-79.435247,83,dufferin grove
187,American (Traditional),Upper Deck Bar,$11-30,43.623677,-79.38136999999999,77,waterfront communities-the island
188,American (Traditional),Red Lobster,$11-30,43.718716,-79.456312,31,yorkdale-glen park
189,American (Traditional),Swiss Chalet Rotisserie & Grill,$11-30,43.726919,-79.48044200000001,26,downsview-roding-cfb
190,American (Traditional),Wild Wing,$11-30,43.772832,-79.280214,126,dorset park
191,American (Traditional),Harvey’s Restaurants,$11-30,43.710664,-79.35753199999999,55,thorncliffe park
192,American (Traditional),Shoxs Billiard Lounge,$11-30,43.665310999999996,-79.463625,90,junction area
193,American (Traditional),Fit for Life,Under $10,43.649458,-79.376687,75,church-yonge corridor
194,American (Traditional),Tilted Kilt Pub & Eatery,$11-30,43.64693,-79.374978,77,waterfront communities-the island
195,American (Traditional),Urbun Eats Co,$11-30,43.71367,-79.365092,56,leaside-bennington
196,American (Traditional),Chuck E. Cheese’s,Under $10,43.775773,-79.32549300000001,46,pleasant view
197,American (Traditional),Popeyes Louisiana Kitchen,Under $10,43.67824,-79.348202,68,north riverdale
198,American (Traditional),St. Louis Bar & Grill,$11-30,43.689977,-79.57165,1,west humber-clairville
199,American (Traditional),Denny’s,$11-30,43.655371,-79.38443199999999,76,bay street corridor
200,American (Traditional),Swiss Chalet Rotisserie & Grill,$11-30,43.647773,-79.508321,16,stonegate-queensway
201,American (Traditional),The Office Pub on King,$11-30,43.649065,-79.37693,75,church-yonge corridor
202,American (Traditional),Harvey’s Restaurants,$11-30,43.706983,-79.396499,104,mount pleasant west
203,American (Traditional),Swiss Chalet Rotisserie & Grill,$11-30,43.740596999999994,-79.232747,138,eglinton east
204,American (Traditional),Moxie’s Grill & Bar,$11-30,43.777878,-79.344654,47,don valley village
205,American (Traditional),La Sani Grill,$11-30,43.776412,-79.234966,137,woburn
206,American (Traditional),Perkins Restaurant & Bakery,$11-30,43.692686,-79.572725,1,west humber-clairville
207,American (Traditional),Pickle Barrel,$11-30,43.795813,-79.421306,36,newtonbrook west
208,American (Traditional),Grace O’Malley’s,$11-30,43.647686,-79.38858499999999,77,waterfront communities-the island
209,American (Traditional),St. Louis Bar & Grill,$11-30,43.777758,-79.344451,47,don valley village
210,American (Traditional),Canadiana Restaurant,Under $10,43.613696999999995,-79.48937600000001,17,mimico
211,American (Traditional),Swiss Chalet Rotisserie & Grill,$11-30,43.745827,-79.289001,119,wexford/maryvale
212,American (Traditional),Swiss Chalet Rotisserie & Grill,$11-30,43.800394,-79.198418,131,rouge
213,American (Traditional),Hoops Sports Bar & Grill,$11-30,43.642256,-79.383064,77,waterfront communities-the island
214,American (Traditional),Peter G’s Bar and Grill,$11-30,43.728424,-79.479947,26,downsview-roding-cfb
215,American (Traditional),Drums N Flats,$11-30,43.735113,-79.420186,39,bedford park-nortown
216,American (Traditional),Pearl Diver,$11-30,43.65157,-79.37377,75,church-yonge corridor
217,American (Traditional),Beaumont Kitchen,$31-60,43.61179,-79.554725,14,islington-city centre west
218,American (Traditional),Georgy Porgys,$11-30,43.742146000000005,-79.31460899999999,45,parkwoods-donalda
219,American (Traditional),Harvey’s Restaurants,Under $10,43.726572999999995,-79.341009,42,banbury-don mills
220,American (Traditional),The Wally Tap & Grill,Under $10,43.694726,-79.343373,58,old east york
221,American (Traditional),Turtle Jack’s Muskoka Grill,$11-30,43.692276,-79.56720200000001,7,willowridge-martingrove-richview
222,American (Traditional),East Side Mario’s,$11-30,43.723936,-79.29072099999999,120,clairlea-birchmount
223,American (Traditional),Route 401 Diner,Under $10,43.702249,-79.563089,1,west humber-clairville
224,American (Traditional),Shooters Snooker & Sports Club,Under $10,43.742146000000005,-79.31460899999999,45,parkwoods-donalda
225,American (Traditional),Pasha Authentic Turkish Cuisine,$11-30,43.708364,-79.342651,55,thorncliffe park
226,American (Traditional),Orfus Wrap and Grill,Under $10,43.719681,-79.45710799999999,31,yorkdale-glen park
227,American (Traditional),Swiss Chalet Rotisserie & Grill - Temp. CLOSED,$11-30,43.671596,-79.378396,74,north st.james town
228,American (Traditional),Moxie’s Grill & Bar,$11-30,43.689727000000005,-79.590799,1,west humber-clairville
229,American (Traditional),Pegasus Bar & Grill,Under $10,43.666013,-79.48749000000001,89,runnymede-bloor west village
230,American (Traditional),Orwells Restaurant,$11-30,43.64467,-79.522917,16,stonegate-queensway
231,American (Traditional),St. Louis Bar & Grill,$11-30,43.773185999999995,-79.413604,51,willowdale east
232,American (Traditional),Red Lobster,$11-30,43.777184000000005,-79.314778,118,tam o'shanter-sullivan
233,American (Traditional),Diana’s Oyster Bar and Grill,$31-60,43.745922,-79.291433,119,wexford/maryvale
234,American (Traditional),Campo,$11-30,43.655118,-79.486959,114,lambton baby point
235,American (Traditional),Pickle Barrel Restaurant,$11-30,43.798709,-79.370005,48,hillcrest village
236,American (Traditional),St. Louis Bar & Grill,$11-30,43.774155,-79.253781,127,bendale
237,American (Traditional),Harvey’s Restaurants,$11-30,43.6253,-79.50721800000001,16,stonegate-queensway
238,American (Traditional),Red Lobster,$11-30,43.614575,-79.558396,14,islington-city centre west
239,American (Traditional),St. Louis Bar & Grill,$11-30,43.754089,-79.357989,40,st.andrew-windfields
240,American (Traditional),Harvey’s Restaurants,Under $10,43.632487,-79.544033,14,islington-city centre west
241,American (Traditional),St. Louis Bar & Grill,$11-30,43.767869,-79.467415,27,york university heights
242,American (Traditional),Jerusalem Restaurant,$11-30,43.778937,-79.363867,47,don valley village
243,American (Traditional),Harvey’s Restaurants,Under $10,43.794709000000005,-79.240328,128,agincourt south-malvern west
244,American (Traditional),Harvey’s Restaurants,Under $10,43.792358,-79.393536,49,bayview woods-steeles
245,American (Traditional),Hoops Sports Bar & Grill,$11-30,43.773345,-79.493015,27,york university heights
246,American (Traditional),Harvey’s Restaurants,Under $10,43.773067,-79.32175699999999,118,tam o'shanter-sullivan
247,American (Traditional),Harvey’s Restaurants,Under $10,43.7495,-79.27619,126,dorset park
248,American (Traditional),Harvey’s Restaurants,$11-30,43.800354999999996,-79.198406,131,rouge
249,American (Traditional),Moxie’s Grill & Bar,$11-30,43.776146000000004,-79.257638,127,bendale
250,American (Traditional),Harvey’s Restaurants,Under $10,43.691284,-79.576438,1,west humber-clairville
251,Arabian,Palmyra Mediterranean House,$11-30,43.648382,-79.604713,11,eringate-centennial-west deane
252,Arabian,Kabsa Mandi Restaurant,$11-30,43.682693,-79.325849,65,greenwood-coxwell
253,Arabian,Zeytouna Restaurant,Under $10,43.655056,-79.38627,76,bay street corridor
254,Argentine,Branca,$31-60,43.650084,-79.438998,84,little portugal
255,Argentine,Tanto,$31-60,43.645823,-79.419795,81,trinity-bellwoods
256,Argentine,AMA,$11-30,43.645042,-79.41612099999999,81,trinity-bellwoods
257,Argentine,Sky Ranch Restaurant,$11-30,43.700992,-79.451471,108,briar hill-belgravia
258,Asian Fusion,Nirvana,$11-30,43.656571,-79.40711999999999,78,kensington-chinatown
259,Asian Fusion,Lee Restaurant,$31-60,43.644144,-79.400384,77,waterfront communities-the island
260,Asian Fusion,DaiLo,$31-60,43.655808,-79.40990500000001,81,trinity-bellwoods
261,Asian Fusion,Katsuya,$11-30,43.660047,-79.37880200000001,75,church-yonge corridor
262,Asian Fusion,Té,$11-30,43.645759999999996,-79.419686,81,trinity-bellwoods
263,Asian Fusion,Hanmoto,$11-30,43.649661,-79.42268100000001,81,trinity-bellwoods
264,Asian Fusion,Odd Seoul,$11-30,43.646190000000004,-79.419686,81,trinity-bellwoods
265,Asian Fusion,Mai Bistro,$11-30,43.649003,-79.528554,14,islington-city centre west
266,Asian Fusion,Katsuya,$11-30,43.789922,-79.41846,36,newtonbrook west
267,Asian Fusion,Sushi Run,$11-30,43.644901000000004,-79.521863,16,stonegate-queensway
268,Asian Fusion,Socialite Restaurant & Bar,$11-30,43.656835,-79.40323000000001,78,kensington-chinatown
269,Asian Fusion,Kid Lee,$11-30,43.648708,-79.381489,76,bay street corridor
270,Asian Fusion,Patois Toronto,$11-30,43.651976,-79.40819499999999,81,trinity-bellwoods
271,Asian Fusion,Lake Inez,$31-60,43.672387,-79.32068199999999,65,greenwood-coxwell
272,Asian Fusion,Bazara Asian Cuisine,$11-30,43.648497,-79.420596,81,trinity-bellwoods
273,Asian Fusion,Foxley Bistro and Bar,$31-60,43.648618,-79.420351,81,trinity-bellwoods
274,Asian Fusion,Lee Chen Asian Bistro,$11-30,43.647369,-79.386763,77,waterfront communities-the island
275,Asian Fusion,Norling,Under $10,43.640332,-79.43839100000001,86,roncesvalles
276,Asian Fusion,R&D Restaurant,$31-60,43.651494,-79.397185,78,kensington-chinatown
277,Asian Fusion,Mt Everest Restaurant,$11-30,43.713212,-79.366619,56,leaside-bennington
278,Asian Fusion,LoPan,$31-60,43.655799,-79.4099,81,trinity-bellwoods
279,Asian Fusion,Duckee,$11-30,43.703389,-79.413912,101,forest hill south
280,Asian Fusion,Katana on Bay,$31-60,43.650304,-79.38046,76,bay street corridor
281,Asian Fusion,Phoenix,$11-30,43.746101,-79.20995,139,scarborough village
282,Asian Fusion,Sala Modern Thai Kitchen & Bar,$11-30,43.681999,-79.330737,66,danforth
283,Asian Fusion,Mo’ Ramyun,$11-30,43.656233,-79.392318,78,kensington-chinatown
284,Asian Fusion,Queen Mother Cafe,$11-30,43.65038,-79.38913000000001,78,kensington-chinatown
285,Asian Fusion,EAT BKK Thai Kitchen,$11-30,43.759246999999995,-79.41076,38,lansing-westgate
286,Asian Fusion,Nakamori,$31-60,43.737224,-79.245165,138,eglinton east
287,Asian Fusion,One2 Snacks,Under $10,43.78719,-79.276623,128,agincourt south-malvern west
288,Asian Fusion,Golden Asian Cuisine,$11-30,43.711870000000005,-79.56537800000001,1,west humber-clairville
289,Asian Fusion,Kevin’s Taiyaki,Under $10,43.663931,-79.41627199999999,80,palmerston-little italy
290,Asian Fusion,Square Fish,$11-30,43.648449,-79.397283,77,waterfront communities-the island
291,Asian Fusion,Banh Mi Boys,Under $10,43.709191,-79.398726,104,mount pleasant west
292,Asian Fusion,Cravings Asian Cuisine,$11-30,43.732495,-79.403787,105,lawrence park north
293,Asian Fusion,Holy Snack,Under $10,43.759988,-79.412225,38,lansing-westgate
294,Asian Fusion,Fring’s,Above $61,43.645001,-79.396023,77,waterfront communities-the island
295,Asian Fusion,Miss Things,$31-60,43.641459999999995,-79.43187900000001,85,south parkdale
296,Asian Fusion,Banh Mi Boys,Under $10,43.659096999999996,-79.382078,75,church-yonge corridor
297,Asian Fusion,Page One,$11-30,43.657853,-79.376254,75,church-yonge corridor
298,Asian Fusion,Thoroughbred Food & Drink,$31-60,43.648949,-79.391628,77,waterfront communities-the island
299,Asian Fusion,Shangrila Tibetan & Asian Cuisine,$11-30,43.63974,-79.441544,86,roncesvalles
300,Asian Fusion,Asian Fusion,Under $10,43.784352,-79.29219,118,tam o'shanter-sullivan
301,Asian Fusion,Hawker Bar,$11-30,43.648281,-79.420383,81,trinity-bellwoods
302,Asian Fusion,The Corktown Kitchen,$11-30,43.653248,-79.362348,73,moss park
303,Asian Fusion,Ho Ga Oriental Cuisine,Under $10,43.647683,-79.383013,76,bay street corridor
304,Asian Fusion,Spice Route Asian Bistro + Bar,$31-60,43.644964,-79.39743399999999,77,waterfront communities-the island
305,Asian Fusion,Rolltation,$11-30,43.70755,-79.398122,104,mount pleasant west
306,Asian Fusion,The Korean Kitchen,$11-30,43.663678000000004,-79.417441,80,palmerston-little italy
307,Asian Fusion,Fusion Grill,Under $10,43.651177000000004,-79.38418,76,bay street corridor
308,Asian Fusion,Alan’s Filipino Restaurant,Under $10,43.751618,-79.263061,127,bendale
309,Asian Fusion,Sweet Lulu,$11-30,43.65041,-79.38134699999999,76,bay street corridor
310,Asian Fusion,James Cheese Back Ribs,$11-30,43.65687,-79.39924,78,kensington-chinatown
311,Asian Fusion,Guest House Chinese,Under $10,43.693272,-79.342676,58,old east york
312,Asian Fusion,Maki My Way,$11-30,43.646357,-79.39004399999999,77,waterfront communities-the island
313,Asian Fusion,Lee Chen Asian Bistro,$11-30,43.671326,-79.387447,95,annex
314,Asian Fusion,Pho Lang Van,$11-30,43.679576000000004,-79.436175,92,corso italia-davenport
315,Asian Fusion,Green Mango Express,$11-30,43.622065,-79.521842,14,islington-city centre west
316,Asian Fusion,The Captain’s Boil,$11-30,43.61565,-79.558763,14,islington-city centre west
317,Asian Fusion,Pho East,$11-30,43.665809,-79.351546,68,north riverdale
318,Asian Fusion,Petit Potato,$11-30,43.79058,-79.36609399999999,48,hillcrest village
319,Asian Fusion,Sakura Garden,$11-30,43.733503999999996,-79.419336,39,bedford park-nortown
320,Asian Fusion,Seoul Restaurant,Under $10,43.664415999999996,-79.41404200000001,80,palmerston-little italy
321,Asian Fusion,AKA-ONI Izakaya,$11-30,43.821985999999995,-79.29892,130,milliken
322,Asian Fusion,Idle On Bloor,$11-30,43.660367,-79.43259599999999,83,dufferin grove
323,Asian Fusion,Rolltation,$11-30,43.669344,-79.386834,76,bay street corridor
324,Asian Fusion,Tang Home Style Lamb and Beef,Under $10,43.809119,-79.29083,130,milliken
325,Asian Fusion,Chinese Traditional Buns,Under $10,43.652729,-79.399045,78,kensington-chinatown
326,Asian Fusion,Sushitto On the Road,$11-30,43.655245,-79.41414300000001,80,palmerston-little italy
327,Asian Fusion,Chinese Burger,$11-30,43.775913,-79.413565,51,willowdale east
328,Asian Fusion,Riki Sushi,$11-30,43.662417,-79.422871,80,palmerston-little italy
329,Asian Fusion,Viet House,Under $10,43.718778,-79.45620500000001,31,yorkdale-glen park
330,Asian Fusion,Canteen,Under $10,43.652586,-79.398445,78,kensington-chinatown
331,Asian Fusion,Charcoal Kebab House,$11-30,43.757486,-79.238963,137,woburn
332,Asian Fusion,WAbar,$11-30,43.667607000000004,-79.38549,75,church-yonge corridor
333,Asian Fusion,Angus Pho House,Under $10,43.777044000000004,-79.414645,51,willowdale east
334,Asian Fusion,The Captain’s Boil,$11-30,43.650369,-79.389969,78,kensington-chinatown
335,Asian Fusion,The Captain’s Boil,$31-60,43.654959999999996,-79.417046,81,trinity-bellwoods
336,Asian Fusion,The Red Tomato,$11-30,43.646116,-79.39079699999999,77,waterfront communities-the island
337,Asian Fusion,Food & Liquor,$11-30,43.6396,-79.44183199999999,86,roncesvalles
338,Asian Fusion,Mr Kiwi Rice & Noodle Bar,$11-30,43.690364,-79.57608,1,west humber-clairville
339,Asian Fusion,Chan Yang,Under $10,43.774374,-79.414043,51,willowdale east
340,Asian Fusion,STAY Cafeteria,Under $10,43.655458,-79.39916600000001,78,kensington-chinatown
341,Asian Fusion,Hakka No. 1,$11-30,43.750034,-79.55216899999999,21,humber summit
342,Asian Fusion,Riz North,$31-60,43.730841,-79.403504,105,lawrence park north
343,Asian Fusion,Pho Phuong,$11-30,43.649674,-79.43511600000001,84,little portugal
344,Asian Fusion,Riz Restaurant On Bayview,$11-30,43.707598,-79.375618,56,leaside-bennington
345,Asian Fusion,Yummy House,Under $10,43.669536,-79.335876,70,south riverdale
346,Asian Fusion,Rolltation,$11-30,43.661214,-79.382681,75,church-yonge corridor
347,Asian Fusion,Green Papaya,$11-30,43.709993,-79.398698,104,mount pleasant west
348,Asian Fusion,Garden Gate Restaurant,Under $10,43.672499,-79.287349,63,the beaches
349,Asian Fusion,The Captain’s Boil,$11-30,43.706402000000004,-79.375711,99,mount pleasant east
350,Asian Fusion,Hong Food,Under $10,43.806591,-79.22225300000001,132,malvern
351,Asian Fusion,Cafe 668,$11-30,43.650984,-79.411692,81,trinity-bellwoods
352,Asian Fusion,The Captain’s Boil,$11-30,43.787913,-79.264716,128,agincourt south-malvern west
353,Asian Fusion,Asian Express,$11-30,43.679342999999996,-79.546856,7,willowridge-martingrove-richview
354,Asian Fusion,Saigon Bistro,$11-30,43.640136,-79.421234,82,niagara
355,Asian Fusion,Sushi on Gerrard,$11-30,43.668876000000004,-79.336965,70,south riverdale
356,Asian Fusion,Asian Buffet,$11-30,43.711254,-79.568916,1,west humber-clairville
357,Asian Fusion,Butler’s Pantry,$11-30,43.650154,-79.450307,86,roncesvalles
358,Asian Fusion,The Captain’s Boil,$11-30,43.662409999999994,-79.383726,76,bay street corridor
359,Asian Fusion,Sushiburri Toronto,$11-30,43.653226000000004,-79.383184,76,bay street corridor
360,Asian Fusion,Westwood Grill,$11-30,43.659958,-79.47964,88,high park north
361,Asian Fusion,Cafe Pho Nho,Under $10,43.652112,-79.44765500000001,86,roncesvalles
362,Asian Fusion,Spring Rolls,$11-30,43.656339,-79.382401,76,bay street corridor
363,Asian Fusion,To-ne Sushi,$11-30,43.648703999999995,-79.397862,78,kensington-chinatown
364,Asian Fusion,Big Tuna Poké Bar,$11-30,43.664603,-79.41293399999999,80,palmerston-little italy
365,Asian Fusion,Double Tree Restaurant & Bar,$11-30,43.655784999999995,-79.39370100000001,78,kensington-chinatown
366,Asian Fusion,Mr Thai,$11-30,43.689609000000004,-79.394409,98,rosedale-moore park
367,Asian Fusion,New Treasure,Under $10,43.655535,-79.385553,76,bay street corridor
368,Asian Fusion,The Captain’s Boil,$11-30,43.754866,-79.34966999999999,42,banbury-don mills
369,Asian Fusion,Chako,$11-30,43.814281,-79.294839,130,milliken
370,Asian Fusion,Oriental Taste Restaurant,$11-30,43.655262,-79.36534300000001,73,moss park
371,Asian Fusion,Tasty Delight Fusion Cuisine,Under $10,43.791579,-79.366747,48,hillcrest village
372,Asian Fusion,Asian Monsoon,$11-30,43.646209999999996,-79.40834100000001,82,niagara
373,Asian Fusion,WE Kitchen,$11-30,43.645472999999996,-79.567131,13,etobicoke west mall
374,Asian Fusion,Koryo Samgaetang,$11-30,43.798412,-79.368898,48,hillcrest village
375,Asian Fusion,The Captain’s Boil,$31-60,43.773319,-79.413572,51,willowdale east
376,Asian Fusion,Fishman Lobster Clubhouse Restaurant,$31-60,43.801976,-79.295159,130,milliken
377,Asian Fusion,Takimi,$11-30,43.79205,-79.44452,36,newtonbrook west
378,Asian Fusion,Kosher Wok and Roll,$11-30,43.786335,-79.445581,36,newtonbrook west
379,Asian Fusion,Sushi Legend,$11-30,43.797005,-79.270478,129,agincourt north
380,Asian Fusion,Chaihana,$11-30,43.769284000000006,-79.468559,27,york university heights
381,Asian Fusion,Spring Sushi,$11-30,43.65644,-79.380686,75,church-yonge corridor
382,Asian Fusion,Fusia Asian Kitchen,Under $10,43.656184,-79.383094,76,bay street corridor
383,Asian Fusion,Flaming Kitchen,$11-30,43.803889,-79.28635,129,agincourt north
384,Asian Fusion,Kim Kim Indian Hakka Chinese Restaurant,Under $10,43.753508000000004,-79.276481,126,dorset park
385,Asian Fusion,Hakka Legend Asian Cuisine,$11-30,43.776412,-79.234966,137,woburn
386,Asian Fusion,Satay On the Road,$11-30,43.735316999999995,-79.419896,39,bedford park-nortown
387,Asian Fusion,Wong’s Asian Cuisine,Under $10,43.747277000000004,-79.283849,126,dorset park
388,Asian Fusion,Chung Moi,$11-30,43.731956,-79.269189,125,ionview
389,Asian Fusion,K&B Sushi,$11-30,43.621995,-79.52217399999999,14,islington-city centre west
390,Asian Fusion,Guu Izakaya Toronto,$11-30,43.641867,-79.43109,86,roncesvalles
391,Asian Fusion,Destiny,$11-30,43.821973,-79.298371,130,milliken
392,Asian Fusion,Tai Chi Restaurant,$11-30,43.759418,-79.1978,136,west hill
393,Asian Fusion,Sushi Legend,$11-30,43.792411,-79.364891,48,hillcrest village
394,Asian Fusion,Pyung Won House,$11-30,43.77941,-79.415798,37,willowdale west
395,Australian,Kanga,Under $10,43.649908,-79.38926,77,waterfront communities-the island
396,Australian,Kanga Aussie Meat Pies,Under $10,43.648118,-79.384403,76,bay street corridor
397,Australian,Kanga Pies,$11-30,43.640197,-79.38399,77,waterfront communities-the island
398,Austrian,Bread & Butter,Under $10,43.701638,-79.38744,99,mount pleasant east
399,Bangladeshi,Georgia Restaurant,$11-30,43.767519,-79.475297,27,york university heights
400,Bangladeshi,Cafe D Taj,$11-30,43.693609,-79.277553,121,oakridge
401,Bangladeshi,Gharoa Restaurant,Under $10,43.690545,-79.29142900000001,61,taylor-massey
402,Bangladeshi,Indian Biriyani House,Under $10,43.654981,-79.386524,76,bay street corridor
403,Bangladeshi,Premium Sweets,$11-30,43.743548,-79.217714,139,scarborough village
404,Barbeque,Smoque N’ Bones,$11-30,43.645703000000005,-79.41074300000001,82,niagara
405,Barbeque,Adamson Barbecue,$11-30,43.712476,-79.353066,55,thorncliffe park
406,Barbeque,Barque Smokehouse,$11-30,43.64801,-79.449659,86,roncesvalles
407,Barbeque,Hogtown Smoke,$11-30,43.648961,-79.37469200000001,75,church-yonge corridor
408,Barbeque,STACK,$11-30,43.729286,-79.40309,105,lawrence park north
409,Barbeque,Beach Hill Smokehouse,$11-30,43.684106,-79.30040600000001,62,east end-danforth
410,Barbeque,Kookminhakgyo,$11-30,43.789107,-79.417852,50,newtonbrook east
411,Barbeque,Gyubee Japanese BBQ - Downtown,$11-30,43.666959999999996,-79.40087199999999,79,university
412,Barbeque,Electric Mud BBQ,$11-30,43.642064000000005,-79.4324,86,roncesvalles
413,Barbeque,Stoke Stack Barbecue,$31-60,43.712476,-79.353066,55,thorncliffe park
414,Barbeque,Cherry Street Bar-B-Que,$11-30,43.645459,-79.35250400000001,70,south riverdale
415,Barbeque,Bourbon Street Smokehouse,$11-30,43.661678,-79.42627900000001,80,palmerston-little italy
416,Barbeque,Appalachia Smokehouse and BBQ,$11-30,43.623804,-79.513683,16,stonegate-queensway
417,Barbeque,Gyu-Kaku Japanese BBQ,$31-60,43.651606,-79.374881,75,church-yonge corridor
418,Barbeque,Big Crow,$31-60,43.675717999999996,-79.403566,95,annex
419,Barbeque,Daldongnae,$11-30,43.78973,-79.418269,36,newtonbrook west
420,Barbeque,Cherry Street Bar-B-Que,$11-30,43.650290999999996,-79.38395200000001,76,bay street corridor
421,Barbeque,Rui’s BBQ,Under $10,43.68258,-79.46474599999999,110,keelesdale-eglinton west
422,Barbeque,Greenwood Smokehouse BBQ,$11-30,43.678998,-79.344287,69,blake-jones
423,Barbeque,Smoke Signals Bar-B-Q,$11-30,43.649617,-79.424082,81,trinity-bellwoods
424,Barbeque,Uncle Smoke Cookhouse,$11-30,43.655190999999995,-79.45232299999999,87,high park-swansea
425,Barbeque,Dang Good BBQ,Under $10,43.662301,-79.389494,76,bay street corridor
426,Barbeque,Urban Smoke Fusion BBQ Food Truck,Under $10,43.718711,-79.470037,31,yorkdale-glen park
427,Barbeque,Little AAA,$11-30,43.663689,-79.32875,70,south riverdale
428,Barbeque,Boneyard Grill,$11-30,43.723189,-79.416213,39,bedford park-nortown
429,Barbeque,Junction Local,$31-60,43.665609,-79.472279,90,junction area
430,Barbeque,Hogtown Smoke In the Beach,$11-30,43.669548999999996,-79.302143,63,the beaches
431,Barbeque,Popular Pot Inc / Zhuang Yuan Bbq Bar,Under $10,43.655822,-79.39869,78,kensington-chinatown
432,Barbeque,Earlscourt BBQ,$11-30,43.677138,-79.447344,92,corso italia-davenport
433,Barbeque,Rally Sports Bar + Smokehouse,$11-30,43.717465999999995,-79.305012,43,victoria village
434,Barbeque,St. Matthew’s BBQ Chicken,Under $10,43.682209,-79.468948,110,keelesdale-eglinton west
435,Barbeque,Barque Butcher Bar,$11-30,43.647682,-79.449405,86,roncesvalles
436,Barbeque,Little Piggy’s,$11-30,43.665958,-79.406715,79,university
437,Barbeque,The Grill Pit,Under $10,43.664227000000004,-79.416129,95,annex
438,Barbeque,Arisu Korean BBQ & Sushi,$11-30,43.664846000000004,-79.412555,80,palmerston-little italy
439,Barbeque,King’s Noodle Restaurant,Under $10,43.653105,-79.39854100000001,78,kensington-chinatown
440,Barbeque,AAA Bar,$11-30,43.651707,-79.372833,75,church-yonge corridor
441,Barbeque,George’s BBQ Chicken,$11-30,43.689772,-79.349328,57,broadview north
442,Barbeque,Liberty Village Rotisserie Grill,$11-30,43.639809,-79.421976,85,south parkdale
443,Barbeque,Kasai Grill House,$11-30,43.655039,-79.416238,81,trinity-bellwoods
444,Barbeque,Smoke Bourbon Bar-B-Q House,$11-30,43.660339,-79.415075,80,palmerston-little italy
445,Barbeque,Jangwon,$11-30,43.663834,-79.417753,95,annex
446,Barbeque,Hong Fatt B-B-Q,Under $10,43.653206,-79.395891,78,kensington-chinatown
447,Barbeque,Chat Bar,$11-30,43.822058,-79.298592,130,milliken
448,Barbeque,Hogtown Smoke,$11-30,43.642509999999994,-79.387038,77,waterfront communities-the island
449,Barbeque,Ho Ho Barbeque,Under $10,43.813658000000004,-79.291422,130,milliken
450,Barbeque,Stop BBQ Chicken,Under $10,43.665867,-79.43806500000001,93,dovercourt-wallace emerson-junction
451,Barbeque,Churrasco of St Lawrence,Under $10,43.648922999999996,-79.371723,77,waterfront communities-the island
452,Barbeque,Tong Ha Supreme BBQ,Under $10,43.822236,-79.298716,130,milliken
453,Barbeque,Yummy BBQ,$11-30,43.663689,-79.3842,76,bay street corridor
454,Barbeque,AAA Bar,$11-30,43.665842,-79.351928,68,north riverdale
455,Barbeque,Pita Land,$11-30,43.665406,-79.403378,79,university
456,Barbeque,Costa Verde BBQ Chicken,$11-30,43.726690000000005,-79.482155,26,downsview-roding-cfb
457,Barbeque,I Love BBQ,$11-30,43.789681,-79.418014,36,newtonbrook west
458,Barbeque,Dumpling & More,$11-30,43.653613,-79.395822,78,kensington-chinatown
459,Barbeque,Rodeo Brazilian Steakhouse,$31-60,43.676255,-79.358131,68,north riverdale
460,Barbeque,Union Social Eatery,$11-30,43.763904,-79.411188,51,willowdale east
461,Barbeque,Harbin Bbq,$11-30,43.805864,-79.28784399999999,129,agincourt north
462,Barbeque,One Plus One BBQ,$11-30,43.822058,-79.298592,130,milliken
463,Barbeque,Yang’s BBQ Restaurant,$11-30,43.804201,-79.288437,130,milliken
464,Barbeque,Churrasco of St Clair,$11-30,43.681629,-79.425331,94,wychwood
465,Barbeque,Iqbal Kebab & Sweet Centre,$11-30,43.706583,-79.351507,55,thorncliffe park
466,Barbeque,George’s Deli & BBQ,Under $10,43.65817,-79.372723,73,moss park
467,Barbeque,Boo Radley’s Junction Bar and Grill,$11-30,43.666146000000005,-79.450326,93,dovercourt-wallace emerson-junction
468,Barbeque,Three Brothers Restaurant,$11-30,43.627069,-79.49859599999999,16,stonegate-queensway
469,Barbeque,Paramount Fine Foods,$11-30,43.647996,-79.3958,77,waterfront communities-the island
470,Barbeque,The Rooster Rotisserie and Grill,Under $10,43.661496,-79.427936,80,palmerston-little italy
471,Barbeque,New May Hong Yuen BBQ,Under $10,43.822398,-79.275451,130,milliken
472,Barbeque,Tasty BBQ Seafood Restaurant,$11-30,43.79419,-79.354411,48,hillcrest village
473,Barbeque,Bairrada Churrasqueira Grill,$11-30,43.653135999999996,-79.428649,83,dufferin grove
474,Barbeque,Yummy Wok N Bbq House,Under $10,43.757148,-79.51820699999999,25,glenfield-jane heights
475,Barbeque,520 BBQ House,$11-30,43.806459000000004,-79.289469,130,milliken
476,Barbeque,Ssam,$31-60,43.779495000000004,-79.415825,37,willowdale west
477,Barbeque,Bryan’s BBQ Real Korean,$11-30,43.664784000000004,-79.413338,95,annex
478,Barbeque,Cusina Lounge,$11-30,43.737289000000004,-79.434926,33,clanton park
479,Barbeque,Toronto BBQ and Beer,$11-30,43.616023,-79.376826,77,waterfront communities-the island
480,Barbeque,Dupont Bbq Chicken,$11-30,43.665584,-79.452699,93,dovercourt-wallace emerson-junction
481,Barbeque,Genghis Khan Mongolian Grill,$11-30,43.726896,-79.342237,42,banbury-don mills
482,Barbeque,Lung Tung Bbq Food,Under $10,43.785204,-79.277574,128,agincourt south-malvern west
483,Barbeque,Xin Jiang Barbecue Restaurant,$11-30,43.804308,-79.331254,116,steeles
484,Barbeque,The Chicken Nest,$31-60,43.718540000000004,-79.429872,32,englemount-lawrence
485,Barbeque,Sam Woo BBQ,$11-30,43.816086,-79.322503,116,steeles
486,Barbeque,New Sun BBQ,Under $10,43.813658000000004,-79.291422,130,milliken
487,Barbeque,Fuji Lamb House,$11-30,43.804255,-79.331052,116,steeles
488,Barbeque,The Queensway Rotisserie & Grill,$11-30,43.616051,-79.545208,14,islington-city centre west
489,Barbeque,Pablo’s Grill It Up,$11-30,43.776146000000004,-79.257638,127,bendale
490,Barbeque,East Court & Mike’s BBQ,$11-30,43.787551,-79.26965799999999,128,agincourt south-malvern west
491,Barbeque,Lam Kee B B Q Restaurant,Under $10,43.724944,-79.252302,124,kennedy park
492,Barbeque,The Sun Barbecue Company,$11-30,43.599201,-79.544077,20,alderwood
493,Barbeque,The Grille Restaurant & Bar,$11-30,43.617708,-79.542885,14,islington-city centre west
494,Barbeque,Kum Hong Bbq House,Under $10,43.803908,-79.287035,130,milliken
495,Barbeque,Tung Tak Bbq House,Under $10,43.813658000000004,-79.291422,130,milliken
496,Barbeque,Sam May BBQ,Under $10,43.786935,-79.27627,128,agincourt south-malvern west
497,Barbeque,Arizona B-Bar & Grill,$11-30,43.683446,-79.593417,1,west humber-clairville
498,Belgian,Moo Frites,Under $10,43.654821000000005,-79.400751,78,kensington-chinatown
499,Belgian,Wafels & More,Under $10,43.654677,-79.40196800000001,78,kensington-chinatown
500,Belgian,Le Petit Déjeuner,$11-30,43.650656,-79.370261,73,moss park
501,Belgian,Wanda’s Belgian Waffles,Under $10,43.658226,-79.381362,75,church-yonge corridor
502,Belgian,Point Bar,$11-30,43.656258,-79.40954599999999,80,palmerston-little italy
503,Bistros,Beerbistro,$11-30,43.649817,-79.377147,75,church-yonge corridor
504,Bistros,Aloette,$31-60,43.648539,-79.395937,77,waterfront communities-the island
505,Bistros,Peter Pan Bistro,$11-30,43.649307,-79.393574,77,waterfront communities-the island
506,Bistros,Restaurant La Banane,Above $61,43.649066,-79.420338,81,trinity-bellwoods
507,Bistros,Marron Bistro,$31-60,43.700479,-79.42863299999999,102,forest hill north
508,Bistros,Cafe CanCan,$31-60,43.662715000000006,-79.403485,79,university
509,Bistros,Modo Mio Italian Bistro,$11-30,43.733655,-79.41927700000001,39,bedford park-nortown
510,Bistros,Gare De L’est,$31-60,43.665163,-79.341536,70,south riverdale
511,Bistros,Paintbox Bistro,$11-30,43.660088,-79.362925,72,regent park
512,Bistros,Bar Wellington,$11-30,43.643309,-79.399404,77,waterfront communities-the island
513,Bistros,The Coffee Bouquets,Under $10,43.648811,-79.48597,87,high park-swansea
514,Brasseries,Le Paradis Brasserie Bistro,$11-30,43.675003000000004,-79.400299,95,annex
515,Brasseries,Maison Fou Brasserie,$11-30,43.651109999999996,-79.47509000000001,87,high park-swansea
516,Brasseries,The Craft Brasserie & Grille,$11-30,43.639408,-79.42081999999999,82,niagara
517,Brasseries,Bazille,$11-30,43.724684,-79.454173,31,yorkdale-glen park
518,Brasseries,Coq of the Walk - Temp. CLOSED,$11-30,43.656258,-79.40954599999999,80,palmerston-little italy
519,Brasseries,Metropolitan Resto Bar,$11-30,43.649994,-79.37722,75,church-yonge corridor
520,Brasseries,Drake One Fifty,$31-60,43.649353999999995,-79.384684,76,bay street corridor
521,Brazilian,Copacabana Brazilian Steak House,$31-60,43.707789,-79.393941,104,mount pleasant west
522,Brazilian,Sabor Brasil,$11-30,43.67465,-79.45931,91,weston-pellam park
523,Brazilian,Rio 40 Restaurant,$11-30,43.677301,-79.44630500000001,92,corso italia-davenport
524,Brazilian,Brazil Bakery and Pastry,Under $10,43.649908,-79.434126,84,little portugal
525,Breakfast & Brunch,Café La Gaffe,$11-30,43.656218,-79.393334,78,kensington-chinatown
526,Breakfast & Brunch,Emma’s Country Kitchen,$11-30,43.681016,-79.43037700000001,94,wychwood
527,Breakfast & Brunch,Eggspectation,$11-30,43.653271999999994,-79.38124599999999,76,bay street corridor
528,Breakfast & Brunch,Under The Table Restaurant,$11-30,43.667423,-79.369456,71,cabbagetown-south st.james town
529,Breakfast & Brunch,White Brick Kitchen,$11-30,43.664176,-79.414961,80,palmerston-little italy
530,Breakfast & Brunch,The Senator,$11-30,43.655737,-79.379002,75,church-yonge corridor
531,Breakfast & Brunch,Sunny Morning,$11-30,43.61851,-79.54405899999999,14,islington-city centre west
532,Breakfast & Brunch,Dirty Food Eatery,$11-30,43.66552,-79.471884,90,junction area
533,Breakfast & Brunch,Insomnia Restaurant & Lounge,$11-30,43.665131,-79.410852,79,university
534,Breakfast & Brunch,Mildred’s Temple Kitchen,$11-30,43.639911,-79.420424,82,niagara
535,Breakfast & Brunch,Sunny Morning,$11-30,43.686526,-79.39355400000001,97,yonge-st.clair
536,Breakfast & Brunch,SORSI E MORSI,$31-60,43.649215000000005,-79.528609,14,islington-city centre west
537,Breakfast & Brunch,Lady Marmalade,$11-30,43.660517,-79.343112,70,south riverdale
538,Breakfast & Brunch,Beast,$11-30,43.644115,-79.405753,82,niagara
539,Breakfast & Brunch,J’s Apron,$11-30,43.662934,-79.40326,79,university
540,Breakfast & Brunch,Our Spot,Under $10,43.654826,-79.400768,78,kensington-chinatown
541,Breakfast & Brunch,The Ace,$11-30,43.646144,-79.44881,86,roncesvalles
542,Breakfast & Brunch,Early Bird Coffee & Kitchen,$11-30,43.647257,-79.40254300000001,77,waterfront communities-the island
543,Breakfast & Brunch,Lola’s Kitchen,$11-30,43.669769,-79.382838,75,church-yonge corridor
544,Breakfast & Brunch,The Good Fork,$11-30,43.649570000000004,-79.484083,89,runnymede-bloor west village
545,Breakfast & Brunch,White Lily Diner,$11-30,43.658812,-79.351177,70,south riverdale
546,Breakfast & Brunch,Ricarda’s,$31-60,43.648462,-79.393681,77,waterfront communities-the island
547,Breakfast & Brunch,Evviva Breakfast & Lunch - Downtown Toronto,$11-30,43.641529999999996,-79.383301,77,waterfront communities-the island
548,Breakfast & Brunch,Farm’r Eatery & Catering,$11-30,43.648528000000006,-79.370271,77,waterfront communities-the island
549,Breakfast & Brunch,Pray Tell,$11-30,43.654441,-79.42303199999999,80,palmerston-little italy
550,Breakfast & Brunch,The Gabardine,$11-30,43.650963,-79.381422,76,bay street corridor
551,Breakfast & Brunch,Frankie’s,Under $10,43.644388,-79.418447,81,trinity-bellwoods
552,Breakfast & Brunch,Bar Buca,$11-30,43.643923,-79.39984,77,waterfront communities-the island
553,Breakfast & Brunch,Karine’s,Under $10,43.654152,-79.391194,78,kensington-chinatown
554,Breakfast & Brunch,Luna Cafe,$11-30,43.64613,-79.42323,81,trinity-bellwoods
555,Breakfast & Brunch,The Green Wood,$11-30,43.664756,-79.32429499999999,65,greenwood-coxwell
556,Breakfast & Brunch,Eggsmart,Under $10,43.671172999999996,-79.376232,74,north st.james town
557,Breakfast & Brunch,Over Easy Restaurant,$11-30,43.648044,-79.377672,76,bay street corridor
558,Breakfast & Brunch,Huevos Gourmet,$11-30,43.601239,-79.50377399999999,18,new toronto
559,Breakfast & Brunch,The Depanneur,$11-30,43.652774,-79.429369,84,little portugal
560,Breakfast & Brunch,Aunties & Uncles,$11-30,43.657,-79.40677,79,university
561,Breakfast & Brunch,OverEasy Restaurant,$11-30,43.668618,-79.395821,95,annex
562,Breakfast & Brunch,Höm Cafe,$11-30,43.670324,-79.390614,95,annex
563,Breakfast & Brunch,Real Mo-Mo’s,$11-30,43.649069,-79.374938,75,church-yonge corridor
564,Breakfast & Brunch,Fiorentina,$11-30,43.677638,-79.350098,68,north riverdale
565,Breakfast & Brunch,Mitzi’s Café,$11-30,43.642812,-79.442415,86,roncesvalles
566,Breakfast & Brunch,Toca,Above $61,43.645431,-79.387059,77,waterfront communities-the island
567,Breakfast & Brunch,Rise & Dine Eatery,$11-30,43.705754,-79.311634,54,o'connor-parkview
568,Breakfast & Brunch,Boom Breakfast & Co,$11-30,43.705788,-79.40353,100,yonge-eglinton
569,Breakfast & Brunch,Starving Artist,$11-30,43.65468,-79.421874,80,palmerston-little italy
570,Breakfast & Brunch,School Restaurant,$11-30,43.637893,-79.424369,85,south parkdale
571,Breakfast & Brunch,Barn Restaurant,Under $10,43.647304999999996,-79.404618,81,trinity-bellwoods
572,Breakfast & Brunch,Cafe Neon,$11-30,43.644279,-79.41974499999999,81,trinity-bellwoods
573,Breakfast & Brunch,Figs Breakfast & Lunch,$11-30,43.655815000000004,-79.364713,73,moss park
574,Breakfast & Brunch,Rashers,Under $10,43.660922,-79.341133,70,south riverdale
575,Breakfast & Brunch,Bam! Breakfast & Bistro,$11-30,43.669897,-79.301546,63,the beaches
576,Breakfast & Brunch,Sugar Loaf,$11-30,43.65903,-79.349068,70,south riverdale
577,Breakfast & Brunch,Hair of the Dog,$11-30,43.662946999999996,-79.379593,75,church-yonge corridor
578,Breakfast & Brunch,Rose and Sons,$11-30,43.675785999999995,-79.403665,95,annex
579,Breakfast & Brunch,Saving Grace,$11-30,43.650865,-79.412429,81,trinity-bellwoods
580,Breakfast & Brunch,Harvest Kitchen,$11-30,43.662723,-79.40435699999999,79,university
581,Breakfast & Brunch,Scollard Variety & Deli,$11-30,43.671698,-79.39218699999999,95,annex
582,Breakfast & Brunch,Crêpe It Up,Under $10,43.666046,-79.380887,75,church-yonge corridor
583,Breakfast & Brunch,Bagel & Co,Under $10,43.6489,-79.383573,76,bay street corridor
584,Breakfast & Brunch,Bannock,$11-30,43.651728999999996,-79.381389,76,bay street corridor
585,Breakfast & Brunch,Baker and Scone,Under $10,43.681474,-79.426097,94,wychwood
586,Breakfast & Brunch,Melanie’s Bistro & Patisserie,$11-30,43.684940999999995,-79.317243,66,danforth
587,Breakfast & Brunch,The Eggman,Under $10,43.657305,-79.384355,76,bay street corridor
588,Breakfast & Brunch,Cacao 70,$11-30,43.65016,-79.360629,77,waterfront communities-the island
589,Breakfast & Brunch,Flo’s Diner,$11-30,43.671353,-79.390966,95,annex
590,Breakfast & Brunch,Apollo 11 Restaurant,Under $10,43.673016,-79.414276,95,annex
591,Breakfast & Brunch,Cafe Nuna,Under $10,43.647068,-79.405689,81,trinity-bellwoods
592,Breakfast & Brunch,CocoaLatte,$11-30,43.681689,-79.425049,94,wychwood
593,Breakfast & Brunch,Mad Dog Cafe,$11-30,43.667038,-79.344678,70,south riverdale
594,Breakfast & Brunch,Flaming Stove,Under $10,43.698282,-79.395814,104,mount pleasant west
595,Breakfast & Brunch,Aziza Cafe,$11-30,43.6534,-79.427324,84,little portugal
596,Breakfast & Brunch,Pantry Foods,$11-30,43.72813,-79.43202,32,englemount-lawrence
597,Breakfast & Brunch,Hub Coffee,Under $10,43.666871,-79.431551,93,dovercourt-wallace emerson-junction
598,Breakfast & Brunch,Purple Penguin Cafe,Under $10,43.660522,-79.342412,70,south riverdale
599,Breakfast & Brunch,Smith,$11-30,43.666992,-79.38132900000001,75,church-yonge corridor
600,Breakfast & Brunch,Morning Glory Cafe,$11-30,43.653884000000005,-79.361051,73,moss park
601,Breakfast & Brunch,Riverdale Perk Cafe,$11-30,43.671256,-79.34670899999999,68,north riverdale
602,Breakfast & Brunch,Film Cafe by Eative,Under $10,43.655074,-79.402431,78,kensington-chinatown
603,Breakfast & Brunch,El Pocho Antojitos Bar,$11-30,43.669641,-79.413426,95,annex
604,Breakfast & Brunch,A La Carte at the Gardiner,$31-60,43.668018,-79.393821,76,bay street corridor
605,Breakfast & Brunch,Bus Terminal Diner,$11-30,43.683729,-79.32311800000001,66,danforth
606,Breakfast & Brunch,Wish,$11-30,43.668639,-79.385706,75,church-yonge corridor
607,Breakfast & Brunch,Wilder Foods,$11-30,43.665724,-79.464814,90,junction area
608,Breakfast & Brunch,Sunset Grill,Under $10,43.645303000000006,-79.388203,77,waterfront communities-the island
609,Breakfast & Brunch,Oliva,Under $10,43.758441999999995,-79.409786,51,willowdale east
610,Breakfast & Brunch,Lox + Schmear,Under $10,43.679173,-79.43826800000001,92,corso italia-davenport
611,Breakfast & Brunch,Good Bite Restaurant,Under $10,43.711486,-79.399012,104,mount pleasant west
612,Breakfast & Brunch,Sunnyside Grill,$11-30,43.677807,-79.44467399999999,92,corso italia-davenport
613,Breakfast & Brunch,Mythology Diner,$31-60,43.641597,-79.431304,85,south parkdale
614,Breakfast & Brunch,Motorama Restaurant,Under $10,43.680017,-79.340132,66,danforth
615,Breakfast & Brunch,Rosedale Diner,$11-30,43.680359,-79.391225,95,annex
616,Breakfast & Brunch,Cora’s Breakfast and Lunch,$11-30,43.661293,-79.381213,75,church-yonge corridor
617,Breakfast & Brunch,Enigma Cafe and Restaurant,$11-30,43.656303,-79.453358,88,high park north
618,Breakfast & Brunch,The George Street Diner,$11-30,43.653008,-79.371418,73,moss park
619,Breakfast & Brunch,Black Cat Espresso Bar,Under $10,43.652705,-79.432348,83,dufferin grove
620,Breakfast & Brunch,Dave’s... On St Clair,$11-30,43.681537,-79.427251,94,wychwood
621,Breakfast & Brunch,The County General,$11-30,43.644989,-79.416228,81,trinity-bellwoods
622,Breakfast & Brunch,Sammy’s Family Restaurant,$11-30,43.753794,-79.2442,127,bendale
623,Breakfast & Brunch,Sandy’s Diner,Under $10,43.773592,-79.472166,27,york university heights
624,Breakfast & Brunch,KOS Restaurant,$11-30,43.654865,-79.403326,78,kensington-chinatown
625,Breakfast & Brunch,The Beach House Bar & Grill,$11-30,43.669426,-79.302503,63,the beaches
626,Breakfast & Brunch,Starving Artist,$11-30,43.67889,-79.439587,92,corso italia-davenport
627,Breakfast & Brunch,Le Sélect Bistro,$31-60,43.643784000000004,-79.39680899999999,77,waterfront communities-the island
628,Breakfast & Brunch,Bonjour Brioche,$11-30,43.659795,-79.346287,70,south riverdale
629,Breakfast & Brunch,Mini Bar,Under $10,43.647084,-79.396109,77,waterfront communities-the island
630,Breakfast & Brunch,Isabella’s Boutique Restaurant,$11-30,43.673792,-79.282787,63,the beaches
631,Breakfast & Brunch,Future Bistro,Under $10,43.665791999999996,-79.407596,79,university
632,Breakfast & Brunch,Hollandaise Diner,$11-30,43.686424,-79.309095,62,east end-danforth
633,Breakfast & Brunch,Lazy Daisy’s Cafe,$11-30,43.672696,-79.319486,65,greenwood-coxwell
634,Breakfast & Brunch,Cora,$11-30,43.644563,-79.391348,77,waterfront communities-the island
635,Breakfast & Brunch,Gayley’s Cafe,$11-30,43.64968,-79.42952199999999,84,little portugal
636,Breakfast & Brunch,Arriba Restaurant,$11-30,43.642223,-79.38954100000001,77,waterfront communities-the island
637,Breakfast & Brunch,Le Gourmand,$11-30,43.648123,-79.396641,77,waterfront communities-the island
638,Breakfast & Brunch,Old York Bar & Grill,$11-30,43.641878999999996,-79.406503,82,niagara
639,Breakfast & Brunch,Sunnyside Grill,Under $10,43.781816,-79.490433,27,york university heights
640,Breakfast & Brunch,Cool Hand of a Girl,$11-30,43.665565,-79.462926,90,junction area
641,Breakfast & Brunch,Chew Chew’s Diner,$11-30,43.663489,-79.372287,71,cabbagetown-south st.james town
642,Breakfast & Brunch,Freshii,Under $10,43.659574,-79.381027,75,church-yonge corridor
643,Breakfast & Brunch,The Grapefruit Moon,$11-30,43.669681,-79.413225,95,annex
644,Breakfast & Brunch,The Red Lantern,$11-30,43.697682,-79.389209,104,mount pleasant west
645,Breakfast & Brunch,Citrus Restaurant and Lounge,$11-30,43.656482000000004,-79.37373000000001,73,moss park
646,Breakfast & Brunch,7 West Cafe,$11-30,43.668566,-79.386526,76,bay street corridor
647,Breakfast & Brunch,Drake’s Corner Café + Bistro,$11-30,43.643205,-79.424638,84,little portugal
648,Breakfast & Brunch,Brownstone Bistro,$11-30,43.666714,-79.385137,75,church-yonge corridor
649,Breakfast & Brunch,Bar Sixty,$11-30,43.642307,-79.402521,82,niagara
650,Breakfast & Brunch,Stadt Cafe,$11-30,43.6653,-79.469572,90,junction area
651,Breakfast & Brunch,Nook,$11-30,43.644966,-79.396751,77,waterfront communities-the island
652,Breakfast & Brunch,La Prep,$11-30,43.652795000000005,-79.378889,75,church-yonge corridor
653,Breakfast & Brunch,Bagels On Fire,Under $10,43.672833000000004,-79.286728,63,the beaches
654,Breakfast & Brunch,The Olive Restaurant,$11-30,43.619861,-79.549734,14,islington-city centre west
655,Breakfast & Brunch,Easy Restaurant,$11-30,43.638733,-79.445599,85,south parkdale
656,Breakfast & Brunch,Ontario Restaurant,Under $10,43.659027,-79.368225,73,moss park
657,Breakfast & Brunch,Bubby’s Bagels,Under $10,43.71829,-79.429568,32,englemount-lawrence
658,Breakfast & Brunch,Caffeine,Under $10,43.742543,-79.314131,45,parkwoods-donalda
659,Breakfast & Brunch,Rustic Cosmo Cafe,$11-30,43.642072,-79.429974,86,roncesvalles
660,Breakfast & Brunch,Phoenix Cafe,$11-30,43.657073,-79.381776,76,bay street corridor
661,Breakfast & Brunch,Select Bakery,$11-30,43.694109999999995,-79.34266099999999,58,old east york
662,Breakfast & Brunch,The Beet,$11-30,43.66567,-79.468316,90,junction area
663,Breakfast & Brunch,Hey Lucy,$11-30,43.646328000000004,-79.390132,77,waterfront communities-the island
664,Breakfast & Brunch,The Peasant Table,$11-30,43.659535999999996,-79.347324,70,south riverdale
665,Breakfast & Brunch,Sunset Grill,$11-30,43.671223,-79.382739,98,rosedale-moore park
666,Breakfast & Brunch,Boom Breakfast & Company,$11-30,43.679019,-79.438666,92,corso italia-davenport
667,Breakfast & Brunch,Boom Breakfast & Company,$11-30,43.654697999999996,-79.421806,80,palmerston-little italy
668,Breakfast & Brunch,The Croissant Tree,$11-30,43.669574,-79.382349,75,church-yonge corridor
669,Breakfast & Brunch,Egglicious,$11-30,43.606549,-79.520459,17,mimico
670,Breakfast & Brunch,It’s Jenny Espresso Boutique and Catering,$11-30,43.661766,-79.369013,73,moss park
671,Breakfast & Brunch,Cafe Crepe,$11-30,43.649927000000005,-79.39081800000001,77,waterfront communities-the island
672,Breakfast & Brunch,Hey Lucy,$11-30,43.664001,-79.368606,73,moss park
673,Breakfast & Brunch,Pumpernickel’s,Under $10,43.648635999999996,-79.381744,76,bay street corridor
674,Breakfast & Brunch,Cosmic Treats,$11-30,43.654001,-79.40168100000001,78,kensington-chinatown
675,Breakfast & Brunch,Harry’s Char Broil & Dining Lounge,$11-30,43.636477,-79.43697399999999,85,south parkdale
676,Breakfast & Brunch,Beacher Cafe,$11-30,43.672005,-79.291342,63,the beaches
677,Breakfast & Brunch,Patisserie La Cigogne,$11-30,43.682501,-79.326985,65,greenwood-coxwell
678,Breakfast & Brunch,Sneaky Dee’s,$11-30,43.656333000000004,-79.407487,78,kensington-chinatown
679,Breakfast & Brunch,Patrician Grill,Under $10,43.650925,-79.368951,73,moss park
680,Breakfast & Brunch,The Junction Grill,Under $10,43.665185,-79.468633,90,junction area
681,Breakfast & Brunch,Kalendar,$11-30,43.655787,-79.41173,80,palmerston-little italy
682,Breakfast & Brunch,Bloor-Jane,Under $10,43.64954,-79.484169,89,runnymede-bloor west village
683,Breakfast & Brunch,Pete’s Corner Grill,$11-30,43.639888,-79.440795,86,roncesvalles
684,Breakfast & Brunch,Hannah’s Cafe and Bakery,Under $10,43.654121,-79.462764,88,high park north
685,Breakfast & Brunch,McCafe,Under $10,43.644521000000005,-79.381073,77,waterfront communities-the island
686,Breakfast & Brunch,Breakfast Room,$11-30,43.618801,-79.499673,17,mimico
687,Breakfast & Brunch,Brick Farm Breakfast,$11-30,43.686046999999995,-79.31179200000001,62,east end-danforth
688,Breakfast & Brunch,Le Papillon On Front,$11-30,43.648515,-79.373387,77,waterfront communities-the island
689,Breakfast & Brunch,Nostalgia Coffee Company,$11-30,43.706818,-79.31162900000001,54,o'connor-parkview
690,Breakfast & Brunch,Sunset Grill,Under $10,43.7103,-79.36314200000001,55,thorncliffe park
691,Breakfast & Brunch,Paddington’s Pump,$11-30,43.649046999999996,-79.37191,77,waterfront communities-the island
692,Breakfast & Brunch,Eggsmart,$11-30,43.657038,-79.384231,76,bay street corridor
693,Breakfast & Brunch,The Gastro Pub,$11-30,43.669814,-79.300054,63,the beaches
694,Breakfast & Brunch,Entice Culinary Lounge,$31-60,43.644017,-79.42025600000001,81,trinity-bellwoods
695,Breakfast & Brunch,Hunter’s on Danforth,$11-30,43.679207,-79.34437,66,danforth
696,Breakfast & Brunch,KOS Cafe and Restaurant,Under $10,43.67224,-79.414402,95,annex
697,Breakfast & Brunch,Sunrise Grill & Crepe,$11-30,43.651296,-79.450981,86,roncesvalles
698,Breakfast & Brunch,Tibet Cafe,Under $10,43.653906,-79.400099,78,kensington-chinatown
699,Breakfast & Brunch,New York Cafe,Under $10,43.676039,-79.35865,68,north riverdale
700,Breakfast & Brunch,Sunset Grill,$11-30,43.651373,-79.379285,76,bay street corridor
701,Breakfast & Brunch,The Chase Fish & Oyster,Above $61,43.65106,-79.379349,76,bay street corridor
702,Breakfast & Brunch,Galata Cafe,$31-60,43.644463,-79.533102,14,islington-city centre west
703,Breakfast & Brunch,Aris Place,Under $10,43.646044,-79.448833,86,roncesvalles
704,Breakfast & Brunch,Aroma Espresso Bar,$11-30,43.671915000000006,-79.377971,74,north st.james town
705,Breakfast & Brunch,Sunset Grill,$11-30,43.673749,-79.47027800000001,90,junction area
706,Breakfast & Brunch,What A Bagel - Spadina,$11-30,43.647110999999995,-79.39588,77,waterfront communities-the island
707,Breakfast & Brunch,Bread & Roses Bakery Cafe,Under $10,43.651282,-79.476845,89,runnymede-bloor west village
708,Breakfast & Brunch,Luckee,$31-60,43.644697,-79.392395,77,waterfront communities-the island
709,Breakfast & Brunch,Sunset Grill,$11-30,43.670334000000004,-79.29958,63,the beaches
710,Breakfast & Brunch,House of Common,$11-30,43.665349,-79.473134,90,junction area
711,Breakfast & Brunch,Hello 123,$11-30,43.643341,-79.423537,84,little portugal
712,Breakfast & Brunch,O&B Canteen,$11-30,43.646693,-79.39021,77,waterfront communities-the island
713,Breakfast & Brunch,Eggsmart,$11-30,43.647884000000005,-79.507726,16,stonegate-queensway
714,Breakfast & Brunch,Marben,$31-60,43.643589,-79.398542,77,waterfront communities-the island
715,Breakfast & Brunch,Mad Crush Wine Bar,$31-60,43.65542,-79.413352,80,palmerston-little italy
716,Breakfast & Brunch,Victoria’s Restaurant,$31-60,43.649359999999994,-79.37623,75,church-yonge corridor
717,Breakfast & Brunch,Shirley’s First Break,Under $10,43.663505,-79.341226,70,south riverdale
718,Breakfast & Brunch,Cora,$11-30,43.783056,-79.252781,128,agincourt south-malvern west
719,Breakfast & Brunch,Bacon Nation,$11-30,43.649195,-79.396668,78,kensington-chinatown
720,Breakfast & Brunch,Queen Star Restaurant,Under $10,43.643473,-79.423324,84,little portugal
721,Breakfast & Brunch,OK OK Diner,$11-30,43.662292,-79.335037,70,south riverdale
722,Breakfast & Brunch,Druxy’s Famous Deli,Under $10,43.688466999999996,-79.393801,98,rosedale-moore park
723,Breakfast & Brunch,Oliver & Bonacini Café Grill,$31-60,43.647189000000004,-79.376799,75,church-yonge corridor
724,Breakfast & Brunch,Lunch Box,Under $10,43.654615,-79.459476,87,high park-swansea
725,Breakfast & Brunch,O’Grady’s Restaurant,$11-30,43.66447,-79.38068,75,church-yonge corridor
726,Breakfast & Brunch,Sunset Grill,Under $10,43.651552,-79.47558199999999,88,high park north
727,Breakfast & Brunch,Kiva’s Bagel Bar,$11-30,43.687807,-79.394827,97,yonge-st.clair
728,Breakfast & Brunch,Thompson Diner,$11-30,43.642914000000005,-79.402046,77,waterfront communities-the island
729,Breakfast & Brunch,Aroma Espresso Bar,$11-30,43.665893,-79.38498299999999,76,bay street corridor
730,Breakfast & Brunch,Boreal Gelato Café,Under $10,43.641858,-79.430988,86,roncesvalles
731,Breakfast & Brunch,The Eagle Twins Restaurant,Under $10,43.679699,-79.43599300000001,92,corso italia-davenport
732,Breakfast & Brunch,Jules Cafe Patisserie,Under $10,43.648621999999996,-79.506417,15,kingsway south
733,Breakfast & Brunch,Valley Fields Restaurant,$11-30,43.741448999999996,-79.319664,45,parkwoods-donalda
734,Breakfast & Brunch,Fit For Life,Under $10,43.656126,-79.383426,76,bay street corridor
735,Breakfast & Brunch,The Peartree Restaurant,$11-30,43.665052,-79.367999,71,cabbagetown-south st.james town
736,Breakfast & Brunch,Eglinton Cafe Bakery,Under $10,43.700548,-79.428301,102,forest hill north
737,Breakfast & Brunch,Sunset Grill Restaurant,Under $10,43.683603000000005,-79.323089,66,danforth
738,Breakfast & Brunch,Purple Onion Restaurant,Under $10,43.665581,-79.469441,90,junction area
739,Breakfast & Brunch,La Prep,$11-30,43.671617,-79.382947,98,rosedale-moore park
740,Breakfast & Brunch,Pavillion Pastries Cafe,Under $10,43.688164,-79.301682,62,east end-danforth
741,Breakfast & Brunch,Beachside Grill,$11-30,43.669297,-79.303911,63,the beaches
742,Breakfast & Brunch,Panagio’s All Day Grill,$11-30,43.617258,-79.48777199999999,17,mimico
743,Breakfast & Brunch,Terry’s Restaurant & Bar,Under $10,43.774634000000006,-79.240774,137,woburn
744,Breakfast & Brunch,Mr Tasty’s Drive Special,Under $10,43.688735,-79.297451,62,east end-danforth
745,Breakfast & Brunch,Heritage Tobacco,$11-30,43.670609999999996,-79.383996,75,church-yonge corridor
746,Breakfast & Brunch,Church Bistro,$11-30,43.667012,-79.381274,75,church-yonge corridor
747,Breakfast & Brunch,Little Hut Cafe,Under $10,43.67033,-79.387232,95,annex
748,Breakfast & Brunch,The Old Nick,$11-30,43.676234,-79.357776,68,north riverdale
749,Breakfast & Brunch,New Town Family Restaurant,Under $10,43.673001,-79.319347,64,woodbine corridor
750,Breakfast & Brunch,Art Square Cafe,$11-30,43.654257,-79.39247900000001,78,kensington-chinatown
751,Breakfast & Brunch,M&Y Bakery,Under $10,43.803801,-79.33575,116,steeles
752,Breakfast & Brunch,Grenadier Cafe,$11-30,43.645392,-79.465377,87,high park-swansea
753,Breakfast & Brunch,Soup Nutsy,Under $10,43.647664,-79.380229,76,bay street corridor
754,Breakfast & Brunch,Sunset Grill,Under $10,43.649729,-79.429364,84,little portugal
755,Breakfast & Brunch,Fit For Life,Under $10,43.656988,-79.380868,75,church-yonge corridor
756,Breakfast & Brunch,Beer2Beer,$11-30,43.656917,-79.402666,78,kensington-chinatown
757,Breakfast & Brunch,Aroma Espresso Bar,$11-30,43.665504999999996,-79.41027199999999,95,annex
758,Breakfast & Brunch,Aroma Espresso Bar,Under $10,43.657455999999996,-79.39034699999999,78,kensington-chinatown
759,Breakfast & Brunch,"The Bagel Stop, Eaton Center",Under $10,43.656023,-79.381412,76,bay street corridor
760,Breakfast & Brunch,Halibut House,$11-30,43.690545,-79.28859,61,taylor-massey
761,Breakfast & Brunch,Jelly Modern Doughnuts,$11-30,43.657046,-79.40490600000001,79,university
762,Breakfast & Brunch,Best Breakfast Place,Under $10,43.663066,-79.36765799999999,73,moss park
763,Breakfast & Brunch,West Street Cuisine,Under $10,43.813658000000004,-79.291422,130,milliken
764,Breakfast & Brunch,La Prep,Under $10,43.646169,-79.384289,76,bay street corridor
765,Breakfast & Brunch,The Bagel Stop Yonge Eglinton Centre,Under $10,43.707132,-79.399106,100,yonge-eglinton
766,Breakfast & Brunch,Coffee Culture Café & Eatery,$11-30,43.658440999999996,-79.487998,89,runnymede-bloor west village
767,Breakfast & Brunch,Chef George Breakfast and Lunch,Under $10,43.759428,-79.289208,126,dorset park
768,Breakfast & Brunch,Five Doors North,$31-60,43.702215,-79.397614,100,yonge-eglinton
769,Breakfast & Brunch,Liwan Kitchen,$11-30,43.785527,-79.27625,128,agincourt south-malvern west
770,Breakfast & Brunch,Donlands Restaurant,Under $10,43.694384,-79.342772,58,old east york
771,Breakfast & Brunch,T-e P--t H---e,$11-30,43.667398,-79.385734,76,bay street corridor
772,Breakfast & Brunch,District 28 Bar Bistro,$11-30,43.655328000000004,-79.340498,70,south riverdale
773,Breakfast & Brunch,Aroma Espresso Bar,$11-30,43.707276,-79.399562,100,yonge-eglinton
774,Breakfast & Brunch,Cora,$11-30,43.617934000000005,-79.53917,14,islington-city centre west
775,Breakfast & Brunch,The Solarium Cafe Bar & Grill,$11-30,43.712315000000004,-79.56483399999999,4,rexdale-kipling
776,Breakfast & Brunch,Pie Squared,Under $10,43.67225,-79.377824,98,rosedale-moore park
777,Breakfast & Brunch,Friends Restaurant,$11-30,43.783117,-79.471075,27,york university heights
778,Breakfast & Brunch,Cafe Diplomatico Restaurant & Pizzeria,$11-30,43.655255,-79.413732,80,palmerston-little italy
779,Breakfast & Brunch,Tim Hortons,Under $10,43.650881,-79.439523,83,dufferin grove
780,Breakfast & Brunch,Fade In Cafe,Under $10,43.683531,-79.299883,62,east end-danforth
781,Breakfast & Brunch,La Prep,$11-30,43.643173,-79.381674,77,waterfront communities-the island
782,Breakfast & Brunch,The Grill Brothers,$11-30,43.706592,-79.39977900000001,100,yonge-eglinton
783,Breakfast & Brunch,Druxy’s Famous Deli,Under $10,43.72161,-79.375924,41,bridle path-sunnybrook-york mills
784,Breakfast & Brunch,Black Knight Restaurant & Tavern,Under $10,43.654343,-79.423751,80,palmerston-little italy
785,Breakfast & Brunch,Eggsmart,Under $10,43.662439,-79.4245,93,dovercourt-wallace emerson-junction
786,Breakfast & Brunch,Last Drop Cafe,Under $10,43.688755,-79.326064,59,danforth east york
787,Breakfast & Brunch,Brioche Dorée,$11-30,43.651540999999995,-79.475047,88,high park north
788,Breakfast & Brunch,Cafe On the Square,$11-30,43.653067,-79.384058,76,bay street corridor
789,Breakfast & Brunch,Creme De La Creme Cafe,$11-30,43.647449,-79.509821,16,stonegate-queensway
790,Breakfast & Brunch,DV Bar Bistro,$11-30,43.725028,-79.327791,42,banbury-don mills
791,Breakfast & Brunch,Aroma Espresso Bar,$11-30,43.651644,-79.367257,73,moss park
792,Breakfast & Brunch,Stoney’s Bread Company,$11-30,43.622807,-79.51799399999999,14,islington-city centre west
793,Breakfast & Brunch,Eggsmart,Under $10,43.694942,-79.342558,58,old east york
794,Breakfast & Brunch,Kuya Willie’s Kainan,Under $10,43.759288,-79.310866,119,wexford/maryvale
795,Breakfast & Brunch,Sunny,$11-30,43.76984,-79.374654,52,bayview village
796,Breakfast & Brunch,Pita Pit,$11-30,43.673859,-79.469734,90,junction area
797,Breakfast & Brunch,Soup Nutsy,Under $10,43.645852000000005,-79.387863,77,waterfront communities-the island
798,Breakfast & Brunch,Tim Hortons,Under $10,43.671103,-79.386962,98,rosedale-moore park
799,Breakfast & Brunch,Pickle Barrel,$11-30,43.707271999999996,-79.399555,100,yonge-eglinton
800,Breakfast & Brunch,Eggsmart,$11-30,43.758955,-79.40990699999999,51,willowdale east
801,Breakfast & Brunch,Tim Horton’s,Under $10,43.727045000000004,-79.32719399999999,42,banbury-don mills
802,Breakfast & Brunch,Druxy’s Famous Deli,Under $10,43.652732,-79.3773,75,church-yonge corridor
803,Breakfast & Brunch,The Markham Station Restaurant,$11-30,43.793599,-79.239992,128,agincourt south-malvern west
804,Breakfast & Brunch,Druxy’s Famous Deli,Under $10,43.655621000000004,-79.386788,76,bay street corridor
805,Breakfast & Brunch,Halibut House,$11-30,43.737666,-79.21753199999999,139,scarborough village
806,Breakfast & Brunch,Paramount Fine foods,$11-30,43.707827,-79.39831600000001,104,mount pleasant west
807,Breakfast & Brunch,Marcello’s Market & Deli,$11-30,43.6496,-79.379575,76,bay street corridor
808,Breakfast & Brunch,Sunshine Spot Restaurant,$11-30,43.769653999999996,-79.374812,52,bayview village
809,Breakfast & Brunch,Tim Hortons,Under $10,43.668296999999995,-79.39771800000001,95,annex
810,Breakfast & Brunch,Freshii,$11-30,43.660987,-79.383889,76,bay street corridor
811,Breakfast & Brunch,Dundas Street Grille,$11-30,43.638822,-79.53823,14,islington-city centre west
812,Breakfast & Brunch,Panagio’s All Day Grill,$11-30,43.792978000000005,-79.260276,128,agincourt south-malvern west
813,Breakfast & Brunch,Simms Restaurant & Lounge,$11-30,43.689403000000006,-79.29735,62,east end-danforth
814,Breakfast & Brunch,Richtree Natural Market Restaurants,$11-30,43.6527,-79.380291,76,bay street corridor
815,Breakfast & Brunch,Thick Cut,$11-30,43.687243,-79.27144200000001,122,birchcliffe-cliffside
816,Breakfast & Brunch,The Breakfast Club,Under $10,43.662634999999995,-79.309934,70,south riverdale
817,Breakfast & Brunch,Fiddler’s Dell Bar & Grill,$11-30,43.658159999999995,-79.487595,89,runnymede-bloor west village
818,Breakfast & Brunch,Great Canadian Bagel,Under $10,43.774390999999994,-79.501114,27,york university heights
819,Breakfast & Brunch,Tim Hortons,Under $10,43.709413,-79.3985,104,mount pleasant west
820,Breakfast & Brunch,Made In China Hot Pot,$11-30,43.806196,-79.288492,130,milliken
821,Breakfast & Brunch,Tim Horton’s,Under $10,43.706382,-79.397785,104,mount pleasant west
822,Breakfast & Brunch,Windfield’s Restaurant,$11-30,43.752859,-79.358435,42,banbury-don mills
823,Breakfast & Brunch,Michel’s Baguette,$11-30,43.648223,-79.37933199999999,76,bay street corridor
824,Breakfast & Brunch,Druxy’s Famous Deli,$11-30,43.658117,-79.390725,78,kensington-chinatown
825,Breakfast & Brunch,Cravin cafe,$11-30,43.721509000000005,-79.23608399999999,123,cliffcrest
826,Breakfast & Brunch,Cora Breakfast and Lunch,$11-30,43.754733,-79.351057,42,banbury-don mills
827,Breakfast & Brunch,Bite Me Bar And Grill,$11-30,43.706402000000004,-79.375711,99,mount pleasant east
828,Breakfast & Brunch,Symposium Cafe Restaurant & Lounge,$11-30,43.771132,-79.413329,51,willowdale east
829,Breakfast & Brunch,Golden Griddle Restaurant,$11-30,43.708836,-79.363062,56,leaside-bennington
830,Breakfast & Brunch,Sunset Grill,$11-30,43.759208,-79.46645500000001,27,york university heights
831,Breakfast & Brunch,Coffee Culture,Under $10,43.776167,-79.23441,137,woburn
832,Breakfast & Brunch,Java Joes,Under $10,43.64396,-79.39021,77,waterfront communities-the island
833,Breakfast & Brunch,Jetsun’s Juicyburger,Under $10,43.727165,-79.292536,119,wexford/maryvale
834,Breakfast & Brunch,Cora’s Breakfast & Lunch,$11-30,43.786698,-79.46856,34,bathurst manor
835,Breakfast & Brunch,High Seas Restaurant,$11-30,43.636485,-79.520036,16,stonegate-queensway
836,Breakfast & Brunch,Tim Hortons,Under $10,43.735341,-79.419898,39,bedford park-nortown
837,Breakfast & Brunch,The Flame Restaurant & Tavern,Under $10,43.709022,-79.477174,30,brookhaven-amesbury
838,Breakfast & Brunch,Sunset Grill,$11-30,43.772551,-79.281097,126,dorset park
839,Breakfast & Brunch,Druxys Famous Deli,Under $10,43.653704,-79.406063,78,kensington-chinatown
840,Breakfast & Brunch,Crack Me Up,Under $10,43.806591,-79.22225300000001,132,malvern
841,Breakfast & Brunch,Quarry Cafe,$11-30,43.688649,-79.279984,122,birchcliffe-cliffside
842,Breakfast & Brunch,Wally’s Grill,$11-30,43.712039000000004,-79.56523100000001,1,west humber-clairville
843,Breakfast & Brunch,Tim Hortons,Under $10,43.647949,-79.37618499999999,75,church-yonge corridor
844,Breakfast & Brunch,Tim Hortons,Under $10,43.644448,-79.448184,86,roncesvalles
845,Breakfast & Brunch,Tim Hortons,Under $10,43.760686,-79.32663000000001,45,parkwoods-donalda
846,Breakfast & Brunch,Cora Breakfast and Lunch,$11-30,43.783916,-79.252753,128,agincourt south-malvern west
847,Breakfast & Brunch,Sunset Grill,$11-30,43.619209000000005,-79.55532,14,islington-city centre west
848,Breakfast & Brunch,Mirage Grill & Lounge,$11-30,43.773011,-79.282174,126,dorset park
849,Breakfast & Brunch,Eggsmart,$11-30,43.727778,-79.28755600000001,120,clairlea-birchmount
850,Breakfast & Brunch,Kiva’s Restaurant & Bakery,Under $10,43.791338,-79.447703,35,westminster-branson
851,Breakfast & Brunch,Cafe Sympatico,$11-30,43.641313000000004,-79.576925,12,markland wood
852,Breakfast & Brunch,Wexford Restaurant,$11-30,43.745612,-79.293687,119,wexford/maryvale
853,Breakfast & Brunch,Tara Inn,Under $10,43.735704,-79.252814,138,eglinton east
854,Breakfast & Brunch,Tov-Li,Under $10,43.784279999999995,-79.446793,35,westminster-branson
855,Breakfast & Brunch,Sunset Grill,$11-30,43.622614,-79.482641,17,mimico
856,Breakfast & Brunch,La Prep,Under $10,43.775177,-79.494091,27,york university heights
857,Breakfast & Brunch,Eggsmart,$11-30,43.736625,-79.24869100000001,138,eglinton east
858,Breakfast & Brunch,La Prep,Under $10,43.769829,-79.412841,51,willowdale east
859,Breakfast & Brunch,Tim Hortons,Under $10,43.772902,-79.442314,37,willowdale west
860,Breakfast & Brunch,Eggsmart,$11-30,43.775558000000004,-79.32265600000001,117,l'amoreaux
861,Breakfast & Brunch,Eggsmart,$11-30,43.768974,-79.282,126,dorset park
862,Breakfast & Brunch,Eggsmart,$11-30,43.761943,-79.295856,119,wexford/maryvale
863,Breakfast & Brunch,Tim Hortons,Under $10,43.714301,-79.307221,54,o'connor-parkview
864,Breakfast & Brunch,Tim Hortons,Under $10,43.660261,-79.582962,11,eringate-centennial-west deane
865,Breakfast & Brunch,Tim Hortons,Under $10,43.774844,-79.334316,53,henry farm
866,Breakfast & Brunch,Tim Hortons,Under $10,43.722809999999996,-79.50949200000001,26,downsview-roding-cfb
867,Breakfast & Brunch,Tim Hortons,Under $10,43.801517,-79.370837,49,bayview woods-steeles
868,British,The Queen And Beaver Public House,$11-30,43.657443,-79.38335699999999,76,bay street corridor
869,British,The House On Parliament,$11-30,43.663606,-79.367891,73,moss park
870,British,The Anne Boleyn,$11-30,43.648595,-79.39263299999999,77,waterfront communities-the island
871,British,The Olde Yorke Fish & Chips,$11-30,43.706109000000005,-79.361876,56,leaside-bennington
872,British,Tennessee,$11-30,43.640153000000005,-79.439995,86,roncesvalles
873,British,The Monk’s Table,$11-30,43.68362,-79.39250600000001,97,yonge-st.clair
874,British,Duke of Kent,$11-30,43.707933000000004,-79.398269,104,mount pleasant west
875,British,Elephant & Castle,$11-30,43.647498999999996,-79.386471,77,waterfront communities-the island
876,British,The Bishop And Belcher,$11-30,43.670305,-79.382288,75,church-yonge corridor
877,British,The Feathers Pub,$11-30,43.680686,-79.287543,62,east end-danforth
878,British,Elephant & Castle,$11-30,43.659015000000004,-79.382243,76,bay street corridor
879,British,Queen Victoria Pub,$11-30,43.77545,-79.274383,126,dorset park
880,British,Duke of Somerset,$11-30,43.657773,-79.38414300000001,76,bay street corridor
881,British,Watts Restaurant,$11-30,43.724114,-79.30078,120,clairlea-birchmount
882,British,Churchmouse & Firkin,$11-30,43.664588,-79.380305,75,church-yonge corridor
883,British,The Beech Tree,$11-30,43.680386999999996,-79.288863,62,east end-danforth
884,British,The Jersey Giant,$11-30,43.648540999999994,-79.373166,77,waterfront communities-the island
885,British,The Olde Stone Cottage Pub & Patio,$11-30,43.746893,-79.208688,140,guildwood
886,British,Queensway Fish & Chips,$11-30,43.621683000000004,-79.524594,14,islington-city centre west
887,British,Queen’s Head Pub,$11-30,43.772917,-79.32144699999999,118,tam o'shanter-sullivan
888,Buffets,Pure Spirits Oyster House & Grill,$31-60,43.650418,-79.358725,77,waterfront communities-the island
889,Buffets,Dragon Pearl Buffet,$11-30,43.755169,-79.34989200000001,42,banbury-don mills
890,Buffets,Scarborough Buffet,$11-30,43.778653000000006,-79.232132,137,woburn
891,Buffets,Mandarin Restaurant - Toronto,$11-30,43.706032,-79.398514,100,yonge-eglinton
892,Buffets,Wu’s Garden Buffet,$11-30,43.805515,-79.337624,48,hillcrest village
893,Buffets,The Bean Sprout,$11-30,43.741583,-79.31484300000001,45,parkwoods-donalda
894,Buffets,Buffet Palace,$11-30,43.65818,-79.38152,75,church-yonge corridor
895,Buffets,Little India Restaurant,$11-30,43.650201,-79.38889499999999,77,waterfront communities-the island
896,Buffets,The Courtyard Cafe,$31-60,43.668791999999996,-79.391088,76,bay street corridor
897,Buffets,Butter Chicken Factory,$11-30,43.667028,-79.36918,71,cabbagetown-south st.james town
898,Buffets,Shima Japanese Restaurant,$11-30,43.653717,-79.395027,78,kensington-chinatown
899,Buffets,Mandarin,$11-30,43.730533,-79.279639,119,wexford/maryvale
900,Buffets,Bluffers Park Restaurant,$31-60,43.706513,-79.231702,123,cliffcrest
901,Buffets,Mandarin Restaurant - Queensway,$11-30,43.621045,-79.523061,14,islington-city centre west
902,Buffets,Mandarin Restaurant - North York,$11-30,43.768078,-79.469775,27,york university heights
903,Buffets,Memories of Japan,$11-30,43.726896,-79.342237,42,banbury-don mills
904,Buffets,Mandarin Restaurant - Rexdale,$11-30,43.71972,-79.596013,1,west humber-clairville
905,Buffets,Mizuki Sushi,$11-30,43.794097,-79.355029,48,hillcrest village
906,Burgers,Hero Certified Burgers - Yonge & St. Clair,$11-30,43.687069,-79.393648,98,rosedale-moore park
907,Burgers,Ozzy’s Burgers,$11-30,43.655265,-79.40262,78,kensington-chinatown
908,Burgers,The Burger’s Priest,$11-30,43.648533,-79.39730300000001,77,waterfront communities-the island
909,Burgers,The Works,$11-30,43.650693,-79.477451,87,high park-swansea
910,Burgers,The Burgernator,$11-30,43.655634,-79.402445,78,kensington-chinatown
911,Burgers,Zeal Burgers,$11-30,43.700356,-79.517524,113,weston
912,Burgers,Rudy,$11-30,43.654909,-79.414814,81,trinity-bellwoods
913,Burgers,Hidden Burger,$11-30,43.646521,-79.37788,76,bay street corridor
914,Burgers,The Burger’s Priest,$11-30,43.666672,-79.315607,64,woodbine corridor
915,Burgers,Fresh Burger,$11-30,43.665408,-79.38082299999999,75,church-yonge corridor
916,Burgers,Martino’s Pizza,$11-30,43.675568,-79.403644,95,annex
917,Burgers,Holy Chuck,$11-30,43.687527,-79.39406,97,yonge-st.clair
918,Burgers,Top Gun Steak & Burger,$11-30,43.655013000000004,-79.402103,78,kensington-chinatown
919,Burgers,Burger’s Priest,$11-30,43.732551,-79.403931,105,lawrence park north
920,Burgers,Toma Burger Addiction,$11-30,43.646234,-79.408856,81,trinity-bellwoods
921,Burgers,Burger Shack,Under $10,43.704803000000005,-79.405689,100,yonge-eglinton
922,Burgers,McCoy Burger Company,$11-30,43.731496,-79.404131,105,lawrence park north
923,Burgers,Big Smoke Burger,$11-30,43.671253,-79.387484,95,annex
924,Burgers,Mama’s Boys Burgers,$11-30,43.70857,-79.267641,120,clairlea-birchmount
925,Burgers,No Bull Burgers,$11-30,43.680575,-79.28506999999999,63,the beaches
926,Burgers,Tuckshop Kitchen,Under $10,43.665001000000004,-79.45572,93,dovercourt-wallace emerson-junction
927,Burgers,Slab Burgers,$11-30,43.668182,-79.388423,76,bay street corridor
928,Burgers,W Burger Bar,$11-30,43.661491,-79.383545,76,bay street corridor
929,Burgers,The Works Gourmet Burger Bistro,$11-30,43.648492,-79.373855,77,waterfront communities-the island
930,Burgers,The 6 Burger Bar,Under $10,43.725356,-79.27585,125,ionview
931,Burgers,Hangry Burger,$11-30,43.660918,-79.382577,75,church-yonge corridor
932,Burgers,The Bulging Burger,$11-30,43.673379,-79.283606,63,the beaches
933,Burgers,WingBurger,$11-30,43.725892,-79.313232,43,victoria village
934,Burgers,Great Burger Kitchen,$11-30,43.669242,-79.336001,70,south riverdale
935,Burgers,Holy Chuck,$11-30,43.665211,-79.384925,76,bay street corridor
936,Burgers,Cowboy Jack’s Juicy Burgers,Under $10,43.738868,-79.238334,138,eglinton east
937,Burgers,The Burger’s Priest,$11-30,43.666036,-79.407864,95,annex
938,Burgers,Burger’s Priest,$11-30,43.720807,-79.45620500000001,31,yorkdale-glen park
939,Burgers,Big Smoke Burger,$11-30,43.644425,-79.39963399999999,77,waterfront communities-the island
940,Burgers,Jacksons Burger,Under $10,43.657447999999995,-79.383682,76,bay street corridor
941,Burgers,Johnny’s Hamburgers,Under $10,43.774878,-79.322278,118,tam o'shanter-sullivan
942,Burgers,Jumbo Burger,Under $10,43.666067,-79.48218299999999,90,junction area
943,Burgers,Big Smoke Burger,$11-30,43.649629,-79.37614599999999,75,church-yonge corridor
944,Burgers,The Burger’s Priest,$11-30,43.616944000000004,-79.542746,14,islington-city centre west
945,Burgers,OBQ Burger,$11-30,43.605187,-79.54679399999999,20,alderwood
946,Burgers,The Burger Cellar,$11-30,43.732407,-79.403917,105,lawrence park north
947,Burgers,Five Guys,$11-30,43.657030999999996,-79.381005,75,church-yonge corridor
948,Burgers,Top Gun Steak & Burgers,$11-30,43.744609000000004,-79.29834100000001,119,wexford/maryvale
949,Burgers,Tallboys Craft Beer House,$11-30,43.662507,-79.42384200000001,93,dovercourt-wallace emerson-junction
950,Burgers,Square-Boy Drive-In,Under $10,43.67975,-79.339497,69,blake-jones
951,Burgers,Planta Burger,$11-30,43.651099,-79.379162,76,bay street corridor
952,Burgers,South St Burger,$11-30,43.65221,-79.366839,73,moss park
953,Burgers,BQM Burger Shoppe,$11-30,43.648887,-79.42063900000001,81,trinity-bellwoods
954,Burgers,Woody’s Burger Bar and Grill,$11-30,43.657854,-79.487635,89,runnymede-bloor west village
955,Burgers,The Mutt,$11-30,43.649819,-79.43261,84,little portugal
956,Burgers,Flame Shack,Under $10,43.656905,-79.358665,72,regent park
957,Burgers,The Irv Gastro Pub,$11-30,43.663540000000005,-79.370583,73,moss park
958,Burgers,Big Jack’s Burger Shops,$11-30,43.655867,-79.364378,72,regent park
959,Burgers,Five Guys,$11-30,43.754171,-79.34949300000001,42,banbury-don mills
960,Burgers,South St. Burger,$11-30,43.709796999999995,-79.39859799999999,104,mount pleasant west
961,Burgers,South St Burger,$11-30,43.650641,-79.38135,76,bay street corridor
962,Burgers,Burgatory,$11-30,43.655055,-79.418563,81,trinity-bellwoods
963,Burgers,BQM Burger Shoppee,$11-30,43.658840999999995,-79.350703,70,south riverdale
964,Burgers,Big Smoke Burger,$11-30,43.65459,-79.38049000000001,76,bay street corridor
965,Burgers,Utopia Café & Grill,$11-30,43.655322,-79.41344699999999,80,palmerston-little italy
966,Burgers,b.good,$11-30,43.649777,-79.371073,73,moss park
967,Burgers,Yummi’s Burger & Shawarma,$11-30,43.745109,-79.296012,119,wexford/maryvale
968,Burgers,UFO Restaurant,Under $10,43.643926,-79.408867,82,niagara
969,Burgers,Dairy Freeze,Under $10,43.675117,-79.45488399999999,92,corso italia-davenport
970,Burgers,Big Smoke Burger,$11-30,43.752789,-79.359202,42,banbury-don mills
971,Burgers,Fifth Pubhouse,$11-30,43.649167,-79.389552,77,waterfront communities-the island
972,Burgers,BQM King West,$11-30,43.641859000000004,-79.41125600000001,82,niagara
973,Burgers,Big Moe’s,$11-30,43.74442,-79.297844,119,wexford/maryvale
974,Burgers,Woody’s Burger Bar and Grill,$11-30,43.592289,-79.541779,19,long branch
975,Burgers,California Burger & Grill,$11-30,43.696915999999995,-79.46350600000001,108,briar hill-belgravia
976,Burgers,Five Guys,$11-30,43.673888,-79.469605,90,junction area
977,Burgers,A&W,Under $10,43.645984000000006,-79.389942,77,waterfront communities-the island
978,Burgers,Refinery Public House,Under $10,43.599790000000006,-79.509129,18,new toronto
979,Burgers,Hero Certified Burgers - Simcoe Place,Under $10,43.644894,-79.386167,77,waterfront communities-the island
980,Burgers,Showtime Bistro,$11-30,43.821304,-79.246289,131,rouge
981,Burgers,Big Smoke Burger,$11-30,43.726087,-79.453974,31,yorkdale-glen park
982,Burgers,b.good,$11-30,43.647684999999996,-79.401025,77,waterfront communities-the island
983,Burgers,Burger Factory,Under $10,43.650104,-79.389176,77,waterfront communities-the island
984,Burgers,Hero Certified Burgers - Yonge & Irwin,$11-30,43.666724,-79.38548399999999,76,bay street corridor
985,Burgers,Hero Certified Burgers - Bay & Wellesley,$11-30,43.665199,-79.38708100000001,76,bay street corridor
986,Burgers,The Real McCoy Burgers & Pizza,Under $10,43.774055,-79.230641,137,woburn
987,Burgers,Chunky Chicken,Under $10,43.705690000000004,-79.346018,55,thorncliffe park
988,Burgers,Alchemy Food & Drink,$11-30,43.654045,-79.425084,80,palmerston-little italy
989,Burgers,Pure Pizza and Burgers,Under $10,43.659440000000004,-79.36601,72,regent park
990,Burgers,Five Guys,$11-30,43.648635999999996,-79.381744,76,bay street corridor
991,Burgers,South St Burger,Under $10,43.680939,-79.42789300000001,94,wychwood
992,Burgers,Burger Shawarma,$11-30,43.660239000000004,-79.435296,93,dovercourt-wallace emerson-junction
993,Burgers,Five Guys,$11-30,43.705616,-79.361144,55,thorncliffe park
994,Burgers,Hero Certified Burgers - King & Bathurst,$11-30,43.64382,-79.404198,82,niagara
995,Burgers,The Bar with No Name,Under $10,43.655226,-79.456175,87,high park-swansea
996,Burgers,Retro Burger,$11-30,43.684102,-79.321338,66,danforth
997,Burgers,Hero Certified Burgers - King & Yonge,$11-30,43.649522,-79.37791,75,church-yonge corridor
998,Burgers,Hero Certified Burgers - Church & Wellesley,$11-30,43.665656,-79.38061,75,church-yonge corridor
999,Burgers,Waterfront Deli,Under $10,43.641671,-79.375925,77,waterfront communities-the island
1000,Burgers,The Combine Eatery,$11-30,43.676642,-79.357421,67,playter estates-danforth
1001,Burgers,b.good,$11-30,43.649491999999995,-79.377517,75,church-yonge corridor
1002,Burgers,Jack Astor’s Bar & Grill,$11-30,43.645455,-79.383975,76,bay street corridor
1003,Burgers,A&W,$11-30,43.675926000000004,-79.358858,68,north riverdale
1004,Burgers,Hero Certified Burgers - TD Towers,Under $10,43.646766,-79.38253399999999,76,bay street corridor
1005,Burgers,Fancy Franks,$11-30,43.657639,-79.40264499999999,79,university
1006,Burgers,The Victorian Monkey,$11-30,43.708094,-79.250475,122,birchcliffe-cliffside
1007,Burgers,Hero Certified Burgers - Beaches,$11-30,43.670348,-79.299092,63,the beaches
1008,Burgers,A&W,$11-30,43.665634000000004,-79.461398,90,junction area
1009,Burgers,Mamajoun Armenian Pizzeria,Under $10,43.760296999999994,-79.302782,119,wexford/maryvale
1010,Burgers,Magoo’s Gourmet Hamburgers & Ice-Cream,$11-30,43.65911,-79.514522,9,edenbridge-humber valley
1011,Burgers,Big Smoke Burger,$11-30,43.611289,-79.55686700000001,14,islington-city centre west
1012,Burgers,The Black Horse,$11-30,43.661709,-79.427406,93,dovercourt-wallace emerson-junction
1013,Burgers,A&W,Under $10,43.649101,-79.39592900000001,78,kensington-chinatown
1014,Burgers,Jack Astor’s Bar & Grill,$11-30,43.671065999999996,-79.385743,98,rosedale-moore park
1015,Burgers,The Dirty Bird Chicken + Waffles,$11-30,43.654786,-79.40069,78,kensington-chinatown
1016,Burgers,Fancy Franks,$11-30,43.66165,-79.427949,93,dovercourt-wallace emerson-junction
1017,Burgers,A&W,Under $10,43.663075,-79.384079,76,bay street corridor
1018,Burgers,South St Burger,$11-30,43.733565000000006,-79.34597,42,banbury-don mills
1019,Burgers,Hero Certified Burgers - Spadina & Lonsdale,$11-30,43.688528000000005,-79.41255,96,casa loma
1020,Burgers,South St. Burger,$11-30,43.631371,-79.519355,14,islington-city centre west
1021,Burgers,Paupers Pub,$11-30,43.66516,-79.410044,79,university
1022,Burgers,State & Main,$11-30,43.645829,-79.56013399999999,14,islington-city centre west
1023,Burgers,B.good,$11-30,43.706983,-79.395651,104,mount pleasant west
1024,Burgers,Jack Astor’s Bar & Grill,$11-30,43.648666999999996,-79.390427,77,waterfront communities-the island
1025,Burgers,Fancy Franks,$11-30,43.648515,-79.39703100000001,77,waterfront communities-the island
1026,Burgers,The Right Wing Sport Pub,$11-30,43.712009,-79.399091,104,mount pleasant west
1027,Burgers,Hero Certified Burgers - Liberty Village,$11-30,43.638339,-79.418573,82,niagara
1028,Burgers,Lone Star Texas Grill,$11-30,43.647498999999996,-79.386471,77,waterfront communities-the island
1029,Burgers,Hero Certified Burgers - Bayview & Leaside,$11-30,43.706702,-79.37550999999999,56,leaside-bennington
1030,Burgers,Jack Astor’s Bar & Grill,$11-30,43.689242,-79.584458,1,west humber-clairville
1031,Burgers,Hero Certified Burgers - Bayview & York Mills,$11-30,43.748005,-79.384152,41,bridle path-sunnybrook-york mills
1032,Burgers,Hero Certified Burgers - Nathan Phillips Square,Under $10,43.652256,-79.383977,76,bay street corridor
1033,Burgers,Shoeless Joe’s Sports Grill - Queens Quay,$11-30,43.638802,-79.38593399999999,77,waterfront communities-the island
1034,Burgers,Wing Shop 366 and K O Burgers,Under $10,43.666252,-79.40584100000001,79,university
1035,Burgers,Hurricanes Roadhouse Restaurant,$11-30,43.661322,-79.428612,80,palmerston-little italy
1036,Burgers,Hero Certified Burgers - Fairview Mall,Under $10,43.777878,-79.344654,47,don valley village
1037,Burgers,Nugget Pizza and Wings,Under $10,43.791665,-79.249291,128,agincourt south-malvern west
1038,Burgers,A&W,$11-30,43.679103000000005,-79.344712,66,danforth
1039,Burgers,Apache Burgers,$11-30,43.63926,-79.53773199999999,14,islington-city centre west
1040,Burgers,South St. Burger,Under $10,43.723084,-79.416139,39,bedford park-nortown
1041,Burgers,Fuse,$11-30,43.655808,-79.363792,72,regent park
1042,Burgers,A&W,Under $10,43.706744,-79.397141,104,mount pleasant west
1043,Burgers,Kathy’s Grill,Under $10,43.752741,-79.27654100000001,126,dorset park
1044,Burgers,Burger King,Under $10,43.657767,-79.399612,78,kensington-chinatown
1045,Burgers,Rails & Ales Pub,Under $10,43.68137,-79.333974,66,danforth
1046,Burgers,Jack Astor’s Bar & Grill,$11-30,43.656586,-79.380074,75,church-yonge corridor
1047,Burgers,Wendy’s,Under $10,43.662807,-79.38346800000001,75,church-yonge corridor
1048,Burgers,GiGi Burger,Under $10,43.767105,-79.470652,27,york university heights
1049,Burgers,Shoeless Joe’s Sports Grill - 1189 King,$11-30,43.639168,-79.425467,85,south parkdale
1050,Burgers,South St. Burger Co.,Under $10,43.710352,-79.362483,55,thorncliffe park
1051,Burgers,Church’s Chicken,Under $10,43.677714,-79.443242,92,corso italia-davenport
1052,Burgers,Lick’s Homeburgers & Ice Cream,$11-30,43.730714,-79.288761,119,wexford/maryvale
1053,Burgers,Shoeless Joe’s Sports Grill - Eglinton & Laird,$11-30,43.713457,-79.365398,56,leaside-bennington
1054,Burgers,Hero Certified Burgers,$11-30,43.594755,-79.533663,19,long branch
1055,Burgers,Big Bite Burgerz,Under $10,43.701572,-79.297115,54,o'connor-parkview
1056,Burgers,Jack Astor’s Bar & Grill,$11-30,43.734596,-79.343857,42,banbury-don mills
1057,Burgers,Big Boy’s Burgers,Under $10,43.721669,-79.236062,123,cliffcrest
1058,Burgers,Hero Certified Burgers - Sheraton Centre Hotel,Under $10,43.651395,-79.383072,76,bay street corridor
1059,Burgers,Dog & Bear Pub,$11-30,43.64352,-79.422798,84,little portugal
1060,Burgers,Shoeless Joe’s Sports Grill - Stockyards,$11-30,43.672859,-79.470813,90,junction area
1061,Burgers,A&W,$11-30,43.654655,-79.422596,80,palmerston-little italy
1062,Burgers,Super Burger,Under $10,43.596225,-79.525056,19,long branch
1063,Burgers,A&W,$11-30,43.645427000000005,-79.522432,14,islington-city centre west
1064,Burgers,Hero Certified Burgers,$11-30,43.774402,-79.501645,27,york university heights
1065,Burgers,Jack Astor’s Bar & Grill,$11-30,43.767191,-79.411974,51,willowdale east
1066,Burgers,Five Guys,$11-30,43.726226000000004,-79.287379,120,clairlea-birchmount
1067,Burgers,Burger King,Under $10,43.645857,-79.387839,77,waterfront communities-the island
1068,Burgers,Maple Leaf House,$11-30,43.601905,-79.498597,18,new toronto
1069,Burgers,Burger King,Under $10,43.639201,-79.42705500000001,85,south parkdale
1070,Burgers,McDonald’s,Under $10,43.650907000000004,-79.378303,75,church-yonge corridor
1071,Burgers,Wendy’s,Under $10,43.646808,-79.38392900000001,76,bay street corridor
1072,Burgers,Boston Pizza,$11-30,43.644139,-79.388553,77,waterfront communities-the island
1073,Burgers,Local Lakeside Patio,$11-30,43.638019,-79.383225,77,waterfront communities-the island
1074,Burgers,Tom’s Dairy Freeze,Under $10,43.627894,-79.496537,16,stonegate-queensway
1075,Burgers,Wendy’s,Under $10,43.768701,-79.412142,51,willowdale east
1076,Burgers,Teazers and Pleazers,Under $10,43.666459,-79.37462,71,cabbagetown-south st.james town
1077,Burgers,Jack Astor’s Bar & Grill,$11-30,43.614290999999994,-79.560126,14,islington-city centre west
1078,Burgers,3 Brasseurs,$11-30,43.638388,-79.42008100000001,82,niagara
1079,Burgers,The Underground,$11-30,43.774084,-79.502381,27,york university heights
1080,Burgers,Hero Certified Burgers - Yonge & Sheppard,$11-30,43.759102,-79.410597,38,lansing-westgate
1081,Burgers,Shoeless Joe’s Sports Grill - King & Duncan,$11-30,43.646919,-79.388545,77,waterfront communities-the island
1082,Burgers,Five Guys,$11-30,43.619584,-79.554886,14,islington-city centre west
1083,Burgers,Harry’s Drive-In,Under $10,43.74908,-79.27714,126,dorset park
1084,Burgers,A&W,Under $10,43.726335999999996,-79.29701999999999,119,wexford/maryvale
1085,Burgers,A&W,Under $10,43.760341,-79.325519,45,parkwoods-donalda
1086,Burgers,Hero Certified Burgers - York University,$11-30,43.774229,-79.49842199999999,27,york university heights
1087,Burgers,Burger King,Under $10,43.763405999999996,-79.291315,126,dorset park
1088,Burgers,McDonald’s,Under $10,43.648815,-79.396742,78,kensington-chinatown
1089,Burgers,McDonald’s,Under $10,43.664419,-79.384557,76,bay street corridor
1090,Burgers,McDonald’s,Under $10,43.662008,-79.425032,80,palmerston-little italy
1091,Burgers,Wendy’s,Under $10,43.615716,-79.52477900000001,17,mimico
